NazevZarizeni,DruhZarizeni,FormaPece,OborPece,Obec,Psc,Ulice,CisloDomovniOrientacni,Kraj,Lat,Lng,city_code_x,city_name,DruhZarizeni_clean,profese,id_typ_profese,nazev_profese,search_term,search_type,Obec_clean,Psc_clean,city_clean,postal_code_clean,city_code_y,city_code_merged
ZNL spol. s r.o.,Samostatná ordinace PL - stomatologa,primární ambulantní péče,zubní lékařství,Adršpach,54952,,114,Královéhradecký kraj,50.627417222633,16.080063795235,,,Samostatná ordinace PL - stomatologa,zubař,3,zubař,,,adršpach,54952,adršpach,54952,547786,
Praktický lékař Písek s.r.o.,Samost. ordinace všeob. prakt. lékaře,ambulantní péče,všeobecné praktické lékařství,Albrechtice nad Vltavou,39816,,79,Jihočeský kraj,49.255486065106,14.307106176932,,,Samost. ordinace všeob. prakt. lékaře,praktik,1,praktik,,,albrechtice nad vltavou,39816,albrechtice nad vltavou,39816,549258,
MUDr. Zbyněk Černý,Samost. ordinace všeob. prakt. lékaře,primární ambulantní péče,všeobecné praktické lékařství,Anenská Studánka,56301,,41,Pardubický kraj,49.850459819502,16.551541382823,,,Samost. ordinace všeob. prakt. lékaře,praktik,1,praktik,,,anenská studánka,56301,anenská studánka,56301,573426,
"MUDr. Josef Berka, s.r.o.",Sam.ord.prakt.lékaře pro děti a dorost,primární ambulantní péče,praktické lékařství pro děti a dorost,Archlebov,69633,,2,Jihomoravský kraj,49.042943183119,17.00681878613,,,Sam.ord.prakt.lékaře pro děti a dorost,pediatr,2,pediatr,,,archlebov,69633,archlebov,69633,586030,
MUDr. Darja Canovová,Samostatná ordinace PL - stomatologa,primární ambulantní péče,zubní lékařství,Archlebov,69633,,2,Jihomoravský kraj,49.042943183119,17.00681878613,,,Samostatná ordinace PL - stomatologa,zubař,3,zubař,,,archlebov,69633,archlebov,69633,586030,
MUDr. Igor Bychler s.r.o.,Samost. ordinace všeob. prakt. lékaře,primární ambulantní péče,všeobecné praktické lékařství,Babice,68703,,46,Zlínský kraj,49.120061045048,17.476297629559,,,Samost. ordinace všeob. prakt. lékaře,praktik,1,praktik,,,babice,68703,babice,68703,592013,
Medicprax s.r.o.,Samost. ordinace všeob. prakt. lékaře,primární ambulantní péče,všeobecné praktické lékařství,Babice nad Svitavou,66401,,214,Jihomoravský kraj,49.280198531895,16.689214666316,,,Samost. ordinace všeob. prakt. lékaře,praktik,1,praktik,,,babice nad svitavou,66401,babice nad svitavou,66401,582794,
MUDr. Libuše Čapková,Samostatná ordinace PL - stomatologa,primární ambulantní péče,zubní lékařství,Bánov,68754,,707,Zlínský kraj,48.991293576561,17.718557187026,,,Samostatná ordinace PL - stomatologa,zubař,3,zubař,,,bánov,68754,bánov,68754,592021,
MUDr. Jitka Gazdíková,Samost. ordinace všeob. prakt. lékaře,primární ambulantní péče,všeobecné praktické lékařství,Bánov,68754,,707,Zlínský kraj,48.991293576561,17.718557187026,,,Samost. ordinace všeob. prakt. lékaře,praktik,1,praktik,,,bánov,68754,bánov,68754,592021,
MUDr. Věra Kadlčková,Samost. ordinace všeob. prakt. lékaře,primární ambulantní péče,všeobecné praktické lékařství,Bánov,68754,,707,Zlínský kraj,48.991293576561,17.718557187026,,,Samost. ordinace všeob. prakt. lékaře,praktik,1,praktik,,,bánov,68754,bánov,68754,592021,
MUDr. Petra Frőmlová,Samost. ordinace všeob. prakt. lékaře,primární ambulantní péče,všeobecné praktické lékařství,Bartošovice,74254,,11,Moravskoslezský kraj,49.669053975586,18.053923829619,,,Samost. ordinace všeob. prakt. lékaře,praktik,1,praktik,,,bartošovice,74254,bartošovice,74254,599212,
MUDr. Michal Pukovec,Sam.ord.prakt.lékaře pro děti a dorost,primární ambulantní péče,praktické lékařství pro děti a dorost,Bartošovice,74254,,11,Moravskoslezský kraj,49.669053975586,18.053923829619,,,Sam.ord.prakt.lékaře pro děti a dorost,pediatr,2,pediatr,,,bartošovice,74254,bartošovice,74254,599212,
Lékař Baška s.r.o.,Samost. ordinace všeob. prakt. lékaře,primární ambulantní péče,všeobecné praktické lékařství,Baška,73901,,420,Moravskoslezský kraj,49.6447605921,18.369628156203,,,Samost. ordinace všeob. prakt. lékaře,praktik,1,praktik,,,baška,73901,baška,73901,598011,
MEDIFA Radka Válková s.r.o.,Samost. ordinace všeob. prakt. lékaře,primární ambulantní péče,všeobecné praktické lékařství,Bečov,43526,,22,Ústecký kraj,50.449058081368,13.717111639729,,,Samost. ordinace všeob. prakt. lékaře,praktik,1,praktik,,,bečov,43526,bečov,43526,567043,
MUDr. Božena Soukupová,Samostatná ordinace PL - stomatologa,ambulantní péče,zubní lékařství,Bečov,43526,,22,Ústecký kraj,50.449058081368,13.717111639729,,,Samostatná ordinace PL - stomatologa,zubař,3,zubař,,,bečov,43526,bečov,43526,567043,
MUDr. Věra Beranová,Samost. ordinace všeob. prakt. lékaře,ambulantní péče,všeobecné praktické lékařství,Bečváry,28143,,185,Středočeský kraj,49.958154880899,15.081441230472,,,Samost. ordinace všeob. prakt. lékaře,praktik,1,praktik,,,bečváry,28143,bečváry,28143,533181,
MUDr. Michal Klečka,Samostatná ordinace PL - stomatologa,ambulantní péče,"zubní lékařství, zubní lékařství",Bečváry,28143,,185,Středočeský kraj,49.958154880899,15.081441230472,,,Samostatná ordinace PL - stomatologa,zubař,3,zubař,,,bečváry,28143,bečváry,28143,533181,
Praktický lékař pro děti a dorost MUDr. Karel Severa,Sam.ord.prakt.lékaře pro děti a dorost,ambulantní péče,praktické lékařství pro děti a dorost,Bečváry,28143,,185,Středočeský kraj,49.958154880899,15.081441230472,,,Sam.ord.prakt.lékaře pro děti a dorost,pediatr,2,pediatr,,,bečváry,28143,bečváry,28143,533181,
MUDr. Jarmila Ševčíková,Samost. ordinace všeob. prakt. lékaře,ambulantní péče,všeobecné praktické lékařství,Bělkovice-Lašťany,78316,,509,Olomoucký kraj,49.674538996487,17.3170422882,,,Samost. ordinace všeob. prakt. lékaře,praktik,1,praktik,,,bělkovice-lašťany,78316,bělkovice-lašťany,78316,500526,
"Belomedica, s.r.o.",Samost. ordinace všeob. prakt. lékaře,primární ambulantní péče,všeobecné praktické lékařství,Bělotín,75364,,177,Olomoucký kraj,49.585781222844,17.799941956833,,,Samost. ordinace všeob. prakt. lékaře,praktik,1,praktik,,,bělotín,75364,bělotín,75364,512231,
MUDr. Zuzana Pazderová,Samostatná ordinace PL - stomatologa,ambulantní péče,zubní lékařství,Bělotín,75364,,177,Olomoucký kraj,49.585781222844,17.799941956833,,,Samostatná ordinace PL - stomatologa,zubař,3,zubař,,,bělotín,75364,bělotín,75364,512231,
"MUDr. Igor Karen, s.r.o.",Samost. ordinace všeob. prakt. lékaře,primární ambulantní péče,všeobecné praktické lékařství,Benátky nad Jizerou,29471,,163,Středočeský kraj,50.291660909425,14.843955058786,,,Samost. ordinace všeob. prakt. lékaře,praktik,1,praktik,,,benátky nad jizerou,29471,benátky nad jizerou,29471,535451,
MUDr. Igor Karen,Samost. ordinace všeob. prakt. lékaře,primární ambulantní péče,všeobecné praktické lékařství,Benátky nad Jizerou,29471,,163,Středočeský kraj,50.291660909425,14.843955058786,,,Samost. ordinace všeob. prakt. lékaře,praktik,1,praktik,,,benátky nad jizerou,29471,benátky nad jizerou,29471,535451,
MUDr. Vlastimil Žilka s.r.o.,Samostatná ordinace PL - stomatologa,primární ambulantní péče,zubní lékařství,Benešov,67953,,19,Jihomoravský kraj,49.510251305317,16.769591593567,,,Samostatná ordinace PL - stomatologa,zubař,3,zubař,,,benešov,67953,benešov,67953,581330,
MUDr. Michal Albert s.r.o.,Samost. ordinace všeob. prakt. lékaře,primární ambulantní péče,všeobecné praktické lékařství,Benešov,67953,,19,Jihomoravský kraj,49.510251305317,16.769591593567,,,Samost. ordinace všeob. prakt. lékaře,praktik,1,praktik,,,benešov,67953,benešov,67953,581330,
Všeobecný lékař Jih s.r.o.,Samost. ordinace všeob. prakt. lékaře,ambulantní péče,všeobecné praktické lékařství,Benešov nad Černou,38282,,125,Jihočeský kraj,48.729574554837,14.625458916008,,,Samost. ordinace všeob. prakt. lékaře,praktik,1,praktik,,,benešov nad černou,38282,benešov nad černou,38282,545406,
MUDr. Marie Mikešová - praktický lékař pro děti a dorost,Sam.ord.prakt.lékaře pro děti a dorost,ambulantní péče,praktické lékařství pro děti a dorost,Benešov nad Černou,38282,,125,Jihočeský kraj,48.729574554837,14.625458916008,,,Sam.ord.prakt.lékaře pro děti a dorost,pediatr,2,pediatr,,,benešov nad černou,38282,benešov nad černou,38282,545406,
PRAKTIK MK83 s.r.o.,Samost. ordinace všeob. prakt. lékaře,ambulantní péče,všeobecné praktické lékařství,Bernartice,54204,,200,Královéhradecký kraj,50.646309059251,15.963813496451,,,Samost. ordinace všeob. prakt. lékaře,praktik,1,praktik,,,bernartice,54204,bernartice,54204,579050,
MUDr. Dagmar Paverová,Sam.ord.prakt.lékaře pro děti a dorost,ambulantní péče,praktické lékařství pro děti a dorost,Bernartice,54204,,200,Královéhradecký kraj,50.646309059251,15.963813496451,,,Sam.ord.prakt.lékaře pro děti a dorost,pediatr,2,pediatr,,,bernartice,54204,bernartice,54204,579050,
MUDr. Radoslav Svoboda,Samost. ordinace všeob. prakt. lékaře,ambulantní péče,všeobecné praktické lékařství,Běstvina,53845,,46,Pardubický kraj,49.836356275093,15.597298896405,,,Samost. ordinace všeob. prakt. lékaře,praktik,1,praktik,,,běstvina,53845,běstvina,53845,571181,
Ordinace Toužim s.r.o.,Samost. ordinace všeob. prakt. lékaře,ambulantní péče,všeobecné praktické lékařství,Bezvěrov,33041,,101,Plzeňský kraj,49.995845111475,13.061412303825,,,Samost. ordinace všeob. prakt. lékaře,praktik,1,praktik,,,bezvěrov,33041,bezvěrov,33041,558656,
MUDr. Elena Vacová s.r.o.,Sam.ord.prakt.lékaře pro děti a dorost,ambulantní péče,praktické lékařství pro děti a dorost,Bílá Lhota,78321,,1,Olomoucký kraj,49.709512883793,16.976441983754,,,Sam.ord.prakt.lékaře pro děti a dorost,pediatr,2,pediatr,,,bílá lhota,78321,bílá lhota,78321,500623,
MUDr. Jaroslav Čampiš,Samost. ordinace všeob. prakt. lékaře,primární ambulantní péče,všeobecné praktické lékařství,Bílá Lhota,78321,,1,Olomoucký kraj,49.709512883793,16.976441983754,,,Samost. ordinace všeob. prakt. lékaře,praktik,1,praktik,,,bílá lhota,78321,bílá lhota,78321,500623,
MDDr. Daniela Vacková,Samostatná ordinace PL - stomatologa,primární ambulantní péče,zubní lékařství,Bílá Třemešná,54472,,31,Královéhradecký kraj,50.445587655725,15.737721742513,,,Samostatná ordinace PL - stomatologa,zubař,3,zubař,,,bílá třemešná,54472,bílá třemešná,54472,579068,
MDDr. Petra Andrlová,Samostatná ordinace PL - stomatologa,ambulantní péče,"Dentální hygienistka, zubní lékařství",Bílá Třemešná,54472,,31,Královéhradecký kraj,50.445587655725,15.737721742513,,,Samostatná ordinace PL - stomatologa,zubař,3,zubař,,,bílá třemešná,54472,bílá třemešná,54472,579068,
MUDr. Pušová s.r.o.,Samost. ordinace všeob. prakt. lékaře,ambulantní péče,"všeobecné praktické lékařství, vnitřní lékařství",Bílá Třemešná,54472,,31,Královéhradecký kraj,50.445587655725,15.737721742513,,,Samost. ordinace všeob. prakt. lékaře,praktik,1,praktik,,,bílá třemešná,54472,bílá třemešná,54472,579068,
MUDr. Zuzana Petrtýlová,Sam.ord.prakt.lékaře pro děti a dorost,primární ambulantní péče,praktické lékařství pro děti a dorost,Bílá Třemešná,54472,,31,Královéhradecký kraj,50.445587655725,15.737721742513,,,Sam.ord.prakt.lékaře pro děti a dorost,pediatr,2,pediatr,,,bílá třemešná,54472,bílá třemešná,54472,579068,
Ordinace Bílovice s.r.o.,Sam.ord.prakt.lékaře pro děti a dorost,primární ambulantní péče,praktické lékařství pro děti a dorost,Bílovice,68712,,71,Zlínský kraj,49.098412302413,17.548503608661,,,Sam.ord.prakt.lékaře pro děti a dorost,pediatr,2,pediatr,,,bílovice,68712,bílovice,68712,592030,
Lékaři L&K s.r.o.,Samost. ordinace všeob. prakt. lékaře,primární ambulantní péče,všeobecné praktické lékařství,Bílovice,68712,,522,Zlínský kraj,49.098048551257,17.54822700783,,,Samost. ordinace všeob. prakt. lékaře,praktik,1,praktik,,,bílovice,68712,bílovice,68712,592030,
MUDr. Radana Malinová,Samostatná ordinace PL - stomatologa,primární ambulantní péče,zubní lékařství,Bílovice,68712,,522,Zlínský kraj,49.098048551257,17.54822700783,,,Samostatná ordinace PL - stomatologa,zubař,3,zubař,,,bílovice,68712,bílovice,68712,592030,
MUDr. Alena Horná,Samost. ordinace všeob. prakt. lékaře,primární ambulantní péče,všeobecné praktické lékařství,Bítov,67107,,102,Jihomoravský kraj,48.936383002567,15.729560436371,,,Samost. ordinace všeob. prakt. lékaře,praktik,1,praktik,,,bítov,67107,bítov,67107,593753,
MUDr. Jaroslav Trávníček - PL pro dospělé,Samost. ordinace všeob. prakt. lékaře,ambulantní péče,všeobecné praktické lékařství,Blatná,38801,,1,Jihočeský kraj,49.375909391989,13.884010638578,,,Samost. ordinace všeob. prakt. lékaře,praktik,1,praktik,,,blatná,38801,blatná,38801,550850,
BLATMED s.r.o.,Samost. ordinace všeob. prakt. lékaře,primární ambulantní péče,všeobecné praktické lékařství,Blatnice pod Svatým Antonínkem,69671,,28,Jihomoravský kraj,48.946712385637,17.464025747329,,,Samost. ordinace všeob. prakt. lékaře,praktik,1,praktik,,,blatnice pod svatým antonínkem,69671,blatnice pod svatým antonínkem,69671,586048,
MUDr. Vladimír Snopek,Samostatná ordinace PL - stomatologa,primární ambulantní péče,zubní lékařství,Blatnice pod Svatým Antonínkem,69671,,850,Jihomoravský kraj,48.944527407504,17.467160274961,,,Samostatná ordinace PL - stomatologa,zubař,3,zubař,,,blatnice pod svatým antonínkem,69671,blatnice pod svatým antonínkem,69671,586048,
"MUDr. Radka Štrbíková, zubní ordinace",Samostatná ordinace PL - stomatologa,ambulantní péče,zubní lékařství,Blížejov,34545,,1,Plzeňský kraj,49.499613499381,12.989383031289,,,Samostatná ordinace PL - stomatologa,zubař,3,zubař,,,blížejov,34545,blížejov,34545,553450,
Cedymed s.r.o.,Samost. ordinace všeob. prakt. lékaře,primární ambulantní péče,všeobecné praktické lékařství,Blíževedly,47104,,10,Liberecký kraj,50.607885346071,14.399187735513,,,Samost. ordinace všeob. prakt. lékaře,praktik,1,praktik,,,blíževedly,47104,blíževedly,47104,561410,
GRUNDA Lékaři s.r.o.,Samost. ordinace všeob. prakt. lékaře,"primární ambulantní péče, specializovaná ambulantní péče","všeobecné praktické lékařství, všeobecné praktické lékařství",Blížkovice,67155,,454,Jihomoravský kraj,49.000447419751,15.843058359967,,,Samost. ordinace všeob. prakt. lékaře,praktik,1,praktik,,,blížkovice,67155,blížkovice,67155,593770,
MUDr. Zuzana Kozárová,Samost. ordinace všeob. prakt. lékaře,"primární ambulantní péče, zdrav. péče poskytovaná ve vlastním soc. prostředí pacienta - návštěvní služba","všeobecné praktické lékařství, všeobecné praktické lékařství",Bobrová,59255,,309,Kraj Vysočina,49.475551927797,16.117459953025,,,Samost. ordinace všeob. prakt. lékaře,praktik,1,praktik,,,bobrová,59255,bobrová,59255,595268,
MUDr. Dagmar Chytrá,Samostatná ordinace PL - stomatologa,ambulantní péče,zubní lékařství,Bobrová,59255,,309,Kraj Vysočina,49.475551927797,16.117459953025,,,Samostatná ordinace PL - stomatologa,zubař,3,zubař,,,bobrová,59255,bobrová,59255,595268,
MUDr. EVA ŠEDÁ,Samost. ordinace všeob. prakt. lékaře,"primární ambulantní péče, zdrav. péče poskytovaná ve vlastním soc. prostředí pacienta - návštěvní služba","všeobecné praktické lékařství, všeobecné praktické lékařství",Bohdalov,59213,,250,Kraj Vysočina,49.481030199541,15.876211711371,,,Samost. ordinace všeob. prakt. lékaře,praktik,1,praktik,,,bohdalov,59213,bohdalov,59213,595292,
MUDr. Ondřej Bartoš,Samostatná ordinace PL - stomatologa,primární ambulantní péče,zubní lékařství,Bohdalov,59213,,250,Kraj Vysočina,49.481030199541,15.876211711371,,,Samostatná ordinace PL - stomatologa,zubař,3,zubař,,,bohdalov,59213,bohdalov,59213,595292,
Jiná ordinace s.r.o.,Samost. ordinace všeob. prakt. lékaře,ambulantní péče,všeobecné praktické lékařství,Bohuslavice,54906,,25,Královéhradecký kraj,50.316095422204,16.087282129081,,,Samost. ordinace všeob. prakt. lékaře,praktik,1,praktik,,,bohuslavice,54906,bohuslavice,54906,573892,
MUDr. František Zarivnij,Samost. ordinace všeob. prakt. lékaře,primární ambulantní péče,všeobecné praktické lékařství,Bohuslavice,79856,,21,Olomoucký kraj,49.621137043976,16.956941767722,,,Samost. ordinace všeob. prakt. lékaře,praktik,1,praktik,,,bohuslavice,79856,bohuslavice,79856,589292,
MUDr. Jakub Zeman,Samost. ordinace všeob. prakt. lékaře,primární ambulantní péče,všeobecné praktické lékařství,Bohuslavice u Zlína,76351,,185,Zlínský kraj,49.163466248012,17.637014667449,,,Samost. ordinace všeob. prakt. lékaře,praktik,1,praktik,,,bohuslavice u zlína,76351,bohuslavice u zlína,76351,585092,
MUDr. Jiří Prachař,Samost. ordinace všeob. prakt. lékaře,ambulantní péče,všeobecné praktické lékařství,Bohutín,78962,,145,Olomoucký kraj,49.951601495026,16.879086403059,,,Samost. ordinace všeob. prakt. lékaře,praktik,1,praktik,,,bohutín,78962,bohutín,78962,525979,
MUDr. Ivo Haman,Samost. ordinace všeob. prakt. lékaře,ambulantní péče,všeobecné praktické lékařství,Bojanov,53826,,62,Pardubický kraj,49.842040772396,15.704178492876,,,Samost. ordinace všeob. prakt. lékaře,praktik,1,praktik,,,bojanov,53826,bojanov,53826,571202,
MUDr. Vladimíra Donné,Samost. ordinace všeob. prakt. lékaře,primární ambulantní péče,"všeobecné praktické lékařství, vnitřní lékařství",Boleradice,69112,,1,Jihomoravský kraj,48.967858725592,16.81160549738,,,Samost. ordinace všeob. prakt. lékaře,praktik,1,praktik,,,boleradice,69112,boleradice,69112,584321,
Renturi s.r.o.,Samost. ordinace všeob. prakt. lékaře,ambulantní péče,všeobecné praktické lékařství,Bor,34802,,33,Plzeňský kraj,49.747225694537,12.776120357591,,,Samost. ordinace všeob. prakt. lékaře,praktik,1,praktik,,,bor,34802,bor,34802,560758,
"MUDr. Miroslav Bešťák, praktický lékař pro dospělé",Samost. ordinace všeob. prakt. lékaře,primární ambulantní péče,všeobecné praktické lékařství,Bor,34802,,61,Plzeňský kraj,49.755499281735,12.820638483405,,,Samost. ordinace všeob. prakt. lékaře,praktik,1,praktik,,,bor,34802,bor,34802,560758,
"SVDP, s.r.o.",Samost. ordinace všeob. prakt. lékaře,primární ambulantní péče,všeobecné praktické lékařství,Borek,53401,,13,Pardubický kraj,50.126622063547,15.857013104644,,,Samost. ordinace všeob. prakt. lékaře,praktik,1,praktik,,,borek,53401,borek,53401,574783,
"MUDr. Anežka Novotná-praktický lékař, s.r.o.",Samost. ordinace všeob. prakt. lékaře,primární ambulantní péče,všeobecné praktické lékařství,Borkovany,69175,,276,Jihomoravský kraj,49.028416232088,16.810958313686,,,Samost. ordinace všeob. prakt. lékaře,praktik,1,praktik,,,borkovany,69175,borkovany,69175,584339,
MUDr. Ivana Hlaváčová s.r.o.,Samost. ordinace všeob. prakt. lékaře,ambulantní péče,všeobecné praktické lékařství,Borotice,26215,,31,Středočeský kraj,49.734851926086,14.277593368663,,,Samost. ordinace všeob. prakt. lékaře,praktik,1,praktik,,,borotice,26215,borotice,26215,539970,
PRAKTIK JC s.r.o.,Samost. ordinace všeob. prakt. lékaře,ambulantní péče,všeobecné praktické lékařství,Borotín,39135,,43,Jihočeský kraj,49.50288239939,14.61288576926,,,Samost. ordinace všeob. prakt. lékaře,praktik,1,praktik,,,borotín,39135,borotín,39135,552101,
plambulance s.r.o.,Samost. ordinace všeob. prakt. lékaře,primární ambulantní péče,"všeobecné praktické lékařství, všeobecné praktické lékařství",Borová,56982,,305,Pardubický kraj,49.743541533241,16.161817100221,,,Samost. ordinace všeob. prakt. lékaře,praktik,1,praktik,,,borová,56982,borová,56982,577839,
MUDr. Martin Plšek,Sam.ord.prakt.lékaře pro děti a dorost,primární ambulantní péče,praktické lékařství pro děti a dorost,Borová,56982,,305,Pardubický kraj,49.743541533241,16.161817100221,,,Sam.ord.prakt.lékaře pro děti a dorost,pediatr,2,pediatr,,,borová,56982,borová,56982,577839,
Ordinace Boršice s.r.o.,Samost. ordinace všeob. prakt. lékaře,ambulantní péče,"všeobecné praktické lékařství, vnitřní lékařství",Boršice,68709,,170,Zlínský kraj,49.062961003513,17.350844059608,,,Samost. ordinace všeob. prakt. lékaře,praktik,1,praktik,,,boršice,68709,boršice,68709,592064,
MUDr. Dagmar Kořistková,Sam.ord.prakt.lékaře pro děti a dorost,primární ambulantní péče,praktické lékařství pro děti a dorost,Boršice,68709,,715,Zlínský kraj,49.063774753311,17.348824546293,,,Sam.ord.prakt.lékaře pro děti a dorost,pediatr,2,pediatr,,,boršice,68709,boršice,68709,592064,
MUDr. Petra Matějíčková,Samostatná ordinace PL - stomatologa,ambulantní péče,zubní lékařství,Boršice,68709,,170,Zlínský kraj,49.062961003513,17.350844059608,,,Samostatná ordinace PL - stomatologa,zubař,3,zubař,,,boršice,68709,boršice,68709,592064,
NEJA Praktik s.r.o.,Samost. ordinace všeob. prakt. lékaře,primární ambulantní péče,všeobecné praktické lékařství,Boršice u Blatnice,68763,,157,Zlínský kraj,48.933763021287,17.572347743624,,,Samost. ordinace všeob. prakt. lékaře,praktik,1,praktik,,,boršice u blatnice,68763,boršice u blatnice,68763,592056,
MUDr. JIŘÍ PULEC,Samost. ordinace všeob. prakt. lékaře,"primární ambulantní péče, zdrav. péče poskytovaná ve vlastním soc. prostředí pacienta - návštěvní služba","všeobecné praktické lékařství, všeobecné praktické lékařství",Bory,59461,,232,Kraj Vysočina,49.425305990256,16.024501656656,,,Samost. ordinace všeob. prakt. lékaře,praktik,1,praktik,,,bory,59461,bory,59461,595641,
MUDr. Vojtěch Klimecký,Sam.ord.prakt.lékaře pro děti a dorost,"ambulantní péče, zdrav. péče poskytovaná ve vlastním soc. prostředí pacienta - návštěvní služba","praktické lékařství pro děti a dorost, praktické lékařství pro děti a dorost",Bory,59461,,232,Kraj Vysočina,49.425305990256,16.024501656656,,,Sam.ord.prakt.lékaře pro děti a dorost,pediatr,2,pediatr,,,bory,59461,bory,59461,595641,
Mediclinic a.s.,Samost. ordinace všeob. prakt. lékaře,primární ambulantní péče,všeobecné praktické lékařství,Bořetice,69108,,387,Jihomoravský kraj,48.913574829217,16.853376867249,,,Samost. ordinace všeob. prakt. lékaře,praktik,1,praktik,,,bořetice,69108,bořetice,69108,584347,
Bianco stomatologie s.r.o.,Samostatná ordinace PL - stomatologa,ambulantní péče,zubní lékařství,Bouzov,78325,,143,Olomoucký kraj,49.702133584691,16.893666567488,,,Samostatná ordinace PL - stomatologa,zubař,3,zubař,,,bouzov,78325,bouzov,78325,500861,
MUDr. Jaroslav Čampiš,Samost. ordinace všeob. prakt. lékaře,primární ambulantní péče,všeobecné praktické lékařství,Bouzov,78325,,143,Olomoucký kraj,49.702133584691,16.893666567488,,,Samost. ordinace všeob. prakt. lékaře,praktik,1,praktik,,,bouzov,78325,bouzov,78325,500861,
MUDr.Putíková Stanislava,Samostatná ordinace PL - stomatologa,ambulantní péče,zubní lékařství,Bouzov,78325,,143,Olomoucký kraj,49.702133584691,16.893666567488,,,Samostatná ordinace PL - stomatologa,zubař,3,zubař,,,bouzov,78325,bouzov,78325,500861,
"MUDr. Helena Valentová, dětský lékař",Sam.ord.prakt.lékaře pro děti a dorost,primární ambulantní péče,praktické lékařství pro děti a dorost,Bozkov,51213,,237,Liberecký kraj,50.642045423455,15.338697525395,,,Sam.ord.prakt.lékaře pro děti a dorost,pediatr,2,pediatr,,,bozkov,51213,bozkov,51213,577006,
MUDr. Jana Hlaváčová,Samost. ordinace všeob. prakt. lékaře,"primární ambulantní péče, zdrav. péče poskytovaná ve vlastním soc. prostředí pacienta - návštěvní služba","všeobecné praktické lékařství, všeobecné praktické lékařství",Božejov,39461,,5,Kraj Vysočina,49.361470125355,15.156527496414,,,Samost. ordinace všeob. prakt. lékaře,praktik,1,praktik,,,božejov,39461,božejov,39461,547581,
MUDr. Dana Korbová,Samostatná ordinace PL - stomatologa,ambulantní péče,zubní lékařství,Božejov,39461,,5,Kraj Vysočina,49.361470125355,15.156527496414,,,Samostatná ordinace PL - stomatologa,zubař,3,zubař,,,božejov,39461,božejov,39461,547581,
"MEDIRAD, spol. s r.o.",Samost. ordinace všeob. prakt. lékaře,primární ambulantní péče,všeobecné praktické lékařství,Božice,67164,,140,Jihomoravský kraj,48.836726564728,16.287274825701,,,Samost. ordinace všeob. prakt. lékaře,praktik,1,praktik,,,božice,67164,božice,67164,593826,
MUDr. Marcela Hnízdilová,Samostatná ordinace PL - stomatologa,ambulantní péče,zubní lékařství,Božice,67164,,140,Jihomoravský kraj,48.836726564728,16.287274825701,,,Samostatná ordinace PL - stomatologa,zubař,3,zubař,,,božice,67164,božice,67164,593826,
ZdravýPodnik s.r.o.,Samost. ordinace všeob. prakt. lékaře,specializovaná ambulantní péče,všeobecné praktické lékařství,Brankovice,68333,,350,Jihomoravský kraj,49.149338793039,17.121736442492,,,Samost. ordinace všeob. prakt. lékaře,praktik,1,praktik,,,brankovice,68333,brankovice,68333,592927,
MUDr. Josef Sehnal,Samost. ordinace všeob. prakt. lékaře,primární ambulantní péče,všeobecné praktické lékařství,Branky,75645,,6,Zlínský kraj,49.459038237101,17.892834743327,,,Samost. ordinace všeob. prakt. lékaře,praktik,1,praktik,,,branky,75645,branky,75645,541648,
Medipraxis Braher s.r.o.,Samost. ordinace všeob. prakt. lékaře,primární ambulantní péče,všeobecné praktické lékařství,Brantice,79393,,294,Moravskoslezský kraj,50.061668431473,17.627332865649,,,Samost. ordinace všeob. prakt. lékaře,praktik,1,praktik,,,brantice,79393,brantice,79393,597210,
MUDr. Jindřich Sklenář,Samost. ordinace všeob. prakt. lékaře,ambulantní péče,všeobecné praktické lékařství,Bratronice,27363,,35,Středočeský kraj,50.067512664207,14.015085168639,,,Samost. ordinace všeob. prakt. lékaře,praktik,1,praktik,,,bratronice,27363,bratronice,27363,532142,
Stomatologie Ujec s.r.o.,Samostatná ordinace PL - stomatologa,primární ambulantní péče,zubní lékařství,Brázdim,25063,,40,Středočeský kraj,50.181893828511,14.588356424472,,,Samostatná ordinace PL - stomatologa,zubař,3,zubař,,,brázdim,25063,brázdim,25063,538108,
MUDr. Václav Filip,Samost. ordinace všeob. prakt. lékaře,ambulantní péče,všeobecné praktické lékařství,Brloh,38206,,17,Jihočeský kraj,48.929666299224,14.220416863368,,,Samost. ordinace všeob. prakt. lékaře,praktik,1,praktik,,,brloh,38206,brloh,38206,545431,
PL Brněnec s.r.o.,Samost. ordinace všeob. prakt. lékaře,primární ambulantní péče,všeobecné praktické lékařství,Brněnec,56904,,90,Pardubický kraj,49.627291415945,16.522501289188,,,Samost. ordinace všeob. prakt. lékaře,praktik,1,praktik,,,brněnec,56904,brněnec,56904,577863,
"Obrovská, pediatr",Sam.ord.prakt.lékaře pro děti a dorost,primární ambulantní péče,praktické lékařství pro děti a dorost,Brněnec,56904,,1,Pardubický kraj,49.62752313961,16.522348947205,,,Sam.ord.prakt.lékaře pro děti a dorost,pediatr,2,pediatr,,,brněnec,56904,brněnec,56904,577863,
MUDr. Jana Illová,Samostatná ordinace PL - stomatologa,primární ambulantní péče,zubní lékařství,Brněnec,56904,,90,Pardubický kraj,49.630948037345,16.524025197976,,,Samostatná ordinace PL - stomatologa,zubař,3,zubař,,,brněnec,56904,brněnec,56904,577863,
"MUDr. Juraj Császár, praktický lékař",Samost. ordinace všeob. prakt. lékaře,primární ambulantní péče,všeobecné praktické lékařství,Brniště,47129,,102,Liberecký kraj,50.7221764813,14.708867686181,,,Samost. ordinace všeob. prakt. lékaře,praktik,1,praktik,,,brniště,47129,brniště,47129,561444,
MUDr. Daniela Turčínová,Samost. ordinace všeob. prakt. lékaře,"primární ambulantní péče, specializovaná ambulantní péče","všeobecné praktické lékařství, všeobecné praktické lékařství",Brod nad Dyjí,69181,,45,Jihomoravský kraj,48.876141151129,16.537011174926,,,Samost. ordinace všeob. prakt. lékaře,praktik,1,praktik,,,brod nad dyjí,69181,brod nad dyjí,69181,584355,
MUDr. Libor Švec,Sam.ord.prakt.lékaře pro děti a dorost,primární ambulantní péče,praktické lékařství pro děti a dorost,Brodek u Konice,79846,,328,Olomoucký kraj,49.547934991343,16.833526946293,,,Sam.ord.prakt.lékaře pro děti a dorost,pediatr,2,pediatr,,,brodek u konice,79846,brodek u konice,79846,589314,
MUDr. Petr Marák,Samost. ordinace všeob. prakt. lékaře,ambulantní péče,všeobecné praktické lékařství,Brodek u Konice,79846,,328,Olomoucký kraj,49.547934991343,16.833526946293,,,Samost. ordinace všeob. prakt. lékaře,praktik,1,praktik,,,brodek u konice,79846,brodek u konice,79846,589314,
MUDr. Vladimíra Donné,Samost. ordinace všeob. prakt. lékaře,primární ambulantní péče,"všeobecné praktické lékařství, vnitřní lékařství",Brumovice,69111,,1,Jihomoravský kraj,48.956654154798,16.895933078472,,,Samost. ordinace všeob. prakt. lékaře,praktik,1,praktik,,,brumovice,69111,brumovice,69111,584363,
AD Oris Dental s.r.o.,Samostatná ordinace PL - stomatologa,ambulantní péče,zubní lékařství,Břasy,33824,,181,Plzeňský kraj,49.825482898141,13.57695084903,,,Samostatná ordinace PL - stomatologa,zubař,3,zubař,,,břasy,33824,břasy,33824,559725,
Praktik Stupno s.r.o.,Samost. ordinace všeob. prakt. lékaře,ambulantní péče,všeobecné praktické lékařství,Břasy,33824,,181,Plzeňský kraj,49.825482898141,13.57695084903,,,Samost. ordinace všeob. prakt. lékaře,praktik,1,praktik,,,břasy,33824,břasy,33824,559725,
AMBULANCE 2010 s.r.o.,Samost. ordinace všeob. prakt. lékaře,ambulantní péče,všeobecné praktické lékařství,Břasy,33824,,165,Plzeňský kraj,49.838619415896,13.58098047362,,,Samost. ordinace všeob. prakt. lékaře,praktik,1,praktik,,,břasy,33824,břasy,33824,559725,
FamilyDoctor s.r.o.,Samost. ordinace všeob. prakt. lékaře,primární ambulantní péče,všeobecné praktické lékařství,Břest,76823,,216,Zlínský kraj,49.350186783555,17.446036361969,,,Samost. ordinace všeob. prakt. lékaře,praktik,1,praktik,,,břest,76823,břest,76823,588385,
MUDr. Alexis Regueyra Bolaňos,Samost. ordinace všeob. prakt. lékaře,ambulantní péče,všeobecné praktické lékařství,Březina,56923,,90,Pardubický kraj,49.651089264866,16.620779838124,,,Samost. ordinace všeob. prakt. lékaře,praktik,1,praktik,,,březina,56923,březina,56923,577871,
JN Doktor s.r.o.,Sam.ord.prakt.lékaře pro děti a dorost,primární ambulantní péče,praktické lékařství pro děti a dorost,Březina,56923,,90,Pardubický kraj,49.651089264866,16.620779838124,,,Sam.ord.prakt.lékaře pro děti a dorost,pediatr,2,pediatr,,,březina,56923,březina,56923,577871,
Praktik Stupno s.r.o.,Samost. ordinace všeob. prakt. lékaře,ambulantní péče,všeobecné praktické lékařství,Březina,33824,,88,Plzeňský kraj,49.808049782507,13.599811115844,,,Samost. ordinace všeob. prakt. lékaře,praktik,1,praktik,,,březina,33824,březina,33824,559733,
MUDr. Jakub Zeman,Samost. ordinace všeob. prakt. lékaře,primární ambulantní péče,všeobecné praktické lékařství,Březnice,76001,,485,Zlínský kraj,49.185970748665,17.659734526081,,,Samost. ordinace všeob. prakt. lékaře,praktik,1,praktik,,,březnice,76001,březnice,76001,538744,
Dětská ordinace Březno s.r.o.,Sam.ord.prakt.lékaře pro děti a dorost,ambulantní péče,praktické lékařství pro děti a dorost,Březno,29406,,1,Středočeský kraj,50.406124521694,15.006658431368,,,Sam.ord.prakt.lékaře pro děti a dorost,pediatr,2,pediatr,,,březno,29406,březno,29406,535583,
MUDr. Radmila Hrušková,Samost. ordinace všeob. prakt. lékaře,ambulantní péče,všeobecné praktické lékařství,Březno,29406,,1,Středočeský kraj,50.406124521694,15.006658431368,,,Samost. ordinace všeob. prakt. lékaře,praktik,1,praktik,,,březno,29406,březno,29406,535583,
MUDr. Jana Hrabalová,Samost. ordinace všeob. prakt. lékaře,primární ambulantní péče,všeobecné praktické lékařství,Březolupy,68713,,520,Zlínský kraj,49.121623137846,17.581155165768,,,Samost. ordinace všeob. prakt. lékaře,praktik,1,praktik,,,březolupy,68713,březolupy,68713,592081,
"MUDr. Zakreničnyj Vladimír s.r.o., Ordinace praktického lékaře pro dospělé",Samost. ordinace všeob. prakt. lékaře,primární ambulantní péče,všeobecné praktické lékařství,Březová,74744,,85,Moravskoslezský kraj,49.791578673986,17.862991648921,,,Samost. ordinace všeob. prakt. lékaře,praktik,1,praktik,,,březová,74744,březová,74744,506451,
"Pavel Tomeček, MUDr.",Samost. ordinace všeob. prakt. lékaře,primární ambulantní péče,všeobecné praktické lékařství,Březová,68767,,390,Zlínský kraj,48.925152994612,17.740416512361,,,Samost. ordinace všeob. prakt. lékaře,praktik,1,praktik,,,březová,68767,březová,68767,592099,
MUDr. Petr Minařík,Samost. ordinace všeob. prakt. lékaře,primární ambulantní péče,všeobecné praktické lékařství,Březůvky,76345,,1,Zlínský kraj,49.154641070592,17.698716275967,,,Samost. ordinace všeob. prakt. lékaře,praktik,1,praktik,,,březůvky,76345,březůvky,76345,585149,
MUDr. Judita Skoumalová,Samost. ordinace všeob. prakt. lékaře,"ambulantní péče, zdrav. péče poskytovaná ve vlastním soc. prostředí pacienta - návštěvní služba","všeobecné praktické lékařství, všeobecné praktické lékařství",Budišov,67503,,356,Kraj Vysočina,49.272141293393,16.006887151478,,,Samost. ordinace všeob. prakt. lékaře,praktik,1,praktik,,,budišov,67503,budišov,67503,590401,
MUDr. Jiří Zelinka,Samostatná ordinace PL - stomatologa,ambulantní péče,zubní lékařství,Budišov,67503,,356,Kraj Vysočina,49.272141293393,16.006887151478,,,Samostatná ordinace PL - stomatologa,zubař,3,zubař,,,budišov,67503,budišov,67503,590401,
MUDr. Milan Bušek,Sam.ord.prakt.lékaře pro děti a dorost,"ambulantní péče, zdrav. péče poskytovaná ve vlastním soc. prostředí pacienta - návštěvní služba","praktické lékařství pro děti a dorost, praktické lékařství pro děti a dorost",Budišov,67503,,356,Kraj Vysočina,49.272141293393,16.006887151478,,,Sam.ord.prakt.lékaře pro děti a dorost,pediatr,2,pediatr,,,budišov,67503,budišov,67503,590401,
MUDr. Jiřina Františková,Samost. ordinace všeob. prakt. lékaře,"ambulantní péče, zdrav. péče poskytovaná ve vlastním soc. prostředí pacienta - návštěvní služba","všeobecné praktické lékařství, všeobecné praktické lékařství",Budkov,67542,,82,Kraj Vysočina,49.05396146338,15.658930363651,,,Samost. ordinace všeob. prakt. lékaře,praktik,1,praktik,,,budkov,67542,budkov,67542,590410,
MUDr. Marie Mikešová - praktický lékař pro děti a dorost,Sam.ord.prakt.lékaře pro děti a dorost,ambulantní péče,praktické lékařství pro děti a dorost,Bujanov,38241,,26,Jihočeský kraj,48.701601073794,14.429439527244,,,Sam.ord.prakt.lékaře pro děti a dorost,pediatr,2,pediatr,,,bujanov,38241,bujanov,38241,545449,
CHLOUPEK - DENT s.r.o.,Samostatná ordinace PL - stomatologa,ambulantní péče,zubní lékařství,Bukovany,77900,,57,Olomoucký kraj,49.605368847497,17.344237104697,,,Samostatná ordinace PL - stomatologa,zubař,3,zubař,,,bukovany,77900,bukovany,77900,552402,
MUDr. PETRA ZAVADILOVÁ,Samost. ordinace všeob. prakt. lékaře,ambulantní péče,všeobecné praktické lékařství,Bušín,78962,,84,Olomoucký kraj,49.976396702682,16.836921587591,,,Samost. ordinace všeob. prakt. lékaře,praktik,1,praktik,,,bušín,78962,bušín,78962,532894,
Praktik Stupno s.r.o.,Samost. ordinace všeob. prakt. lékaře,ambulantní péče,všeobecné praktické lékařství,Bušovice,33824,,7,Plzeňský kraj,49.787373005655,13.521943249782,,,Samost. ordinace všeob. prakt. lékaře,praktik,1,praktik,,,bušovice,33824,bušovice,33824,559750,
Bonanima s.r.o.,Samost. ordinace všeob. prakt. lékaře,ambulantní péče,všeobecné praktické lékařství,Bystřec,56154,,182,Pardubický kraj,50.010397909337,16.619707952938,,,Samost. ordinace všeob. prakt. lékaře,praktik,1,praktik,,,bystřec,56154,bystřec,56154,579971,
MUDr. Radmila Jarešová,Sam.ord.prakt.lékaře pro děti a dorost,ambulantní péče,praktické lékařství pro děti a dorost,Bystřec,56154,,133,Pardubický kraj,50.006658431368,16.637160231735,,,Sam.ord.prakt.lékaře pro děti a dorost,pediatr,2,pediatr,,,bystřec,56154,bystřec,56154,579971,
"MUDr. Zuzana Jedličková, praktický lékař stomatolog",Samostatná ordinace PL - stomatologa,primární ambulantní péče,zubní lékařství,Bystřec,56154,,182,Pardubický kraj,50.010397909337,16.619707952938,,,Samostatná ordinace PL - stomatologa,zubař,3,zubař,,,bystřec,56154,bystřec,56154,579971,
MUDr. Petra Dorňák Heczková s.r.o.,Sam.ord.prakt.lékaře pro děti a dorost,ambulantní péče,praktické lékařství pro děti a dorost,Bystřice,73995,,1501,Moravskoslezský kraj,49.637319817184,18.720186486616,,,Sam.ord.prakt.lékaře pro děti a dorost,pediatr,2,pediatr,,,bystřice,73995,bystřice,73995,598062,
OptiEndo s.r.o.,Samostatná ordinace PL - stomatologa,primární ambulantní péče,zubní lékařství,Bystřice,73995,,1562,Moravskoslezský kraj,49.642799045652,18.706713392607,,,Samostatná ordinace PL - stomatologa,zubař,3,zubař,,,bystřice,73995,bystřice,73995,598062,
BENEPRAKTIK s.r.o.,Samost. ordinace všeob. prakt. lékaře,primární ambulantní péče,všeobecné praktické lékařství,Bystřice,73995,,1501,Moravskoslezský kraj,49.637319817184,18.720186486616,,,Samost. ordinace všeob. prakt. lékaře,praktik,1,praktik,,,bystřice,73995,bystřice,73995,598062,
"OlzaDent, s.r.o.",Samostatná ordinace PL - stomatologa,primární ambulantní péče,zubní lékařství,Bystřice,73995,,1501,Moravskoslezský kraj,49.637319817184,18.720186486616,,,Samostatná ordinace PL - stomatologa,zubař,3,zubař,,,bystřice,73995,bystřice,73995,598062,
MUDr. Lucyna Škňouřil,Samost. ordinace všeob. prakt. lékaře,primární ambulantní péče,všeobecné praktické lékařství,Bystřice,73995,,1501,Moravskoslezský kraj,49.637319817184,18.720186486616,,,Samost. ordinace všeob. prakt. lékaře,praktik,1,praktik,,,bystřice,73995,bystřice,73995,598062,
MUDr. Jiří Navrátík,Samostatná ordinace PL - stomatologa,primární ambulantní péče,zubní lékařství,Bystřice,73995,,106,Moravskoslezský kraj,49.638663161181,18.722743182997,,,Samostatná ordinace PL - stomatologa,zubař,3,zubař,,,bystřice,73995,bystřice,73995,598062,
MUDr. Josef Šustek,Samost. ordinace všeob. prakt. lékaře,"primární ambulantní péče, specializovaná ambulantní péče","všeobecné praktické lékařství, rehabilitační a fyzikální medicína",Bystřice pod Hostýnem,76841,,106,Zlínský kraj,49.371144429195,17.630486384841,,,Samost. ordinace všeob. prakt. lékaře,praktik,1,praktik,,,bystřice pod hostýnem,76841,bystřice pod hostýnem,76841,588393,
MUDr. Ivana Šustková,Samostatná ordinace PL - stomatologa,primární ambulantní péče,zubní lékařství,Bystřice pod Hostýnem,76841,,106,Zlínský kraj,49.371144429195,17.630486384841,,,Samostatná ordinace PL - stomatologa,zubař,3,zubař,,,bystřice pod hostýnem,76841,bystřice pod hostýnem,76841,588393,
MediUB s.r.o.,Samost. ordinace všeob. prakt. lékaře,ambulantní péče,všeobecné praktické lékařství,Bystřice pod Lopeníkem,68755,,360,Zlínský kraj,48.976033441429,17.760837686284,,,Samost. ordinace všeob. prakt. lékaře,praktik,1,praktik,,,bystřice pod lopeníkem,68755,bystřice pod lopeníkem,68755,592111,
MUDr. JARMILA PAŘENICOVÁ,Samost. ordinace všeob. prakt. lékaře,primární ambulantní péče,všeobecné praktické lékařství,Bystřička,75624,,154,Zlínský kraj,49.416219893558,17.974889312832,,,Samost. ordinace všeob. prakt. lékaře,praktik,1,praktik,,,bystřička,75624,bystřička,75624,541711,
MDDr. Martin Baník,Samostatná ordinace PL - stomatologa,primární ambulantní péče,zubní lékařství,Bystřička,75624,,154,Zlínský kraj,49.416219893558,17.974889312832,,,Samostatná ordinace PL - stomatologa,zubař,3,zubař,,,bystřička,75624,bystřička,75624,541711,
"SVDP, s.r.o.",Samost. ordinace všeob. prakt. lékaře,primární ambulantní péče,všeobecné praktické lékařství,Býšť,53322,,78,Pardubický kraj,50.131387165437,15.910780230988,,,Samost. ordinace všeob. prakt. lékaře,praktik,1,praktik,,,býšť,53322,býšť,53322,574848,
MUDr. Jana Ižáková,Samost. ordinace všeob. prakt. lékaře,ambulantní péče,všeobecné praktické lékařství,Býšť,53322,,156,Pardubický kraj,50.126826287469,15.910596228476,,,Samost. ordinace všeob. prakt. lékaře,praktik,1,praktik,,,býšť,53322,býšť,53322,574848,
MUDr. Beáta Hromková,Samostatná ordinace PL - stomatologa,ambulantní péče,zubní lékařství,Býšť,53322,,102,Pardubický kraj,50.131671715924,15.91065455433,,,Samostatná ordinace PL - stomatologa,zubař,3,zubař,,,býšť,53322,býšť,53322,574848,
"SUCCURSUS, s.r.o.",Samost. ordinace všeob. prakt. lékaře,ambulantní péče,všeobecné praktické lékařství,Cehnice,38752,,76,Jihočeský kraj,49.215084559659,14.029364426696,,,Samost. ordinace všeob. prakt. lékaře,praktik,1,praktik,,,cehnice,38752,cehnice,38752,550906,
MUDr. Miloš Sláma,Samost. ordinace všeob. prakt. lékaře,primární ambulantní péče,všeobecné praktické lékařství,Cerekvice nad Loučnou,56953,,8,Pardubický kraj,49.897821305898,16.218084350522,,,Samost. ordinace všeob. prakt. lékaře,praktik,1,praktik,,,cerekvice nad loučnou,56953,cerekvice nad loučnou,56953,577936,
MUDr. Věra Blechová,Samost. ordinace všeob. prakt. lékaře,ambulantní péče,všeobecné praktické lékařství,Citice,35601,,13,Karlovarský kraj,50.162360709088,12.614487325681,,,Samost. ordinace všeob. prakt. lékaře,praktik,1,praktik,,,citice,35601,citice,35601,560324,
MUDr. Sylva Valsová s.r.o.,Samost. ordinace všeob. prakt. lékaře,ambulantní péče,všeobecné praktické lékařství,Cítov,27704,,203,Středočeský kraj,50.373088450106,14.397722633874,,,Samost. ordinace všeob. prakt. lékaře,praktik,1,praktik,,,cítov,27704,cítov,27704,534731,
MUDr. Zdeněk Krajíček,Samost. ordinace všeob. prakt. lékaře,ambulantní péče,všeobecné praktické lékařství,Cizkrajov,37881,,55,Jihočeský kraj,49.030371200761,15.388544491572,,,Samost. ordinace všeob. prakt. lékaře,praktik,1,praktik,,,cizkrajov,37881,cizkrajov,37881,546054,
Dr. Rajbl s.r.o.,Samost. ordinace všeob. prakt. lékaře,ambulantní péče,všeobecné praktické lékařství,Cotkytle,56132,,3,Pardubický kraj,49.936757658971,16.724246153634,,,Samost. ordinace všeob. prakt. lékaře,praktik,1,praktik,,,cotkytle,56132,cotkytle,56132,579980,
Ordinace MUDr. Kružíka s.r.o.,Samost. ordinace všeob. prakt. lékaře,"ambulantní péče, zdrav. péče poskytovaná ve vlastním soc. prostředí pacienta - návštěvní služba","všeobecné praktické lékařství, všeobecné praktické lékařství",Čáslavice,67524,,110,Kraj Vysočina,49.152000223612,15.772279382751,,,Samost. ordinace všeob. prakt. lékaře,praktik,1,praktik,,,čáslavice,67524,čáslavice,67524,590436,
ANDENTAL s.r.o.,Samostatná ordinace PL - stomatologa,primární ambulantní péče,zubní lékařství,Čebín,66423,,575,Jihomoravský kraj,49.313622917185,16.47904753184,,,Samostatná ordinace PL - stomatologa,zubař,3,zubař,,,čebín,66423,čebín,66423,582913,
"MUDr. Karol Franc - praktický lékař, s.r.o.",Samost. ordinace všeob. prakt. lékaře,primární ambulantní péče,všeobecné praktické lékařství,Čebín,66423,,575,Jihomoravský kraj,49.313622917185,16.47904753184,,,Samost. ordinace všeob. prakt. lékaře,praktik,1,praktik,,,čebín,66423,čebín,66423,582913,
"MUDr. Marek Uřičář, s.r.o.",Samost. ordinace všeob. prakt. lékaře,primární ambulantní péče,všeobecné praktické lékařství,Čejč,69614,,73,Jihomoravský kraj,48.946971342897,16.965832944733,,,Samost. ordinace všeob. prakt. lékaře,praktik,1,praktik,,,čejč,69614,čejč,69614,586099,
MUDr. Pavel Popelka,Samostatná ordinace PL - stomatologa,primární ambulantní péče,zubní lékařství,Čejč,69614,,73,Jihomoravský kraj,48.946971342897,16.965832944733,,,Samostatná ordinace PL - stomatologa,zubař,3,zubař,,,čejč,69614,čejč,69614,586099,
MUDr. Sylvie Prokopcová - ambulantní pediatrie,Sam.ord.prakt.lékaře pro děti a dorost,ambulantní péče,praktické lékařství pro děti a dorost,Čejkovice,37341,,64,Jihočeský kraj,49.012255227955,14.380462249557,,,Sam.ord.prakt.lékaře pro děti a dorost,pediatr,2,pediatr,,,čejkovice,37341,čejkovice,37341,544329,
Obvoďák z Čeladné s.r.o.,Samost. ordinace všeob. prakt. lékaře,primární ambulantní péče,všeobecné praktické lékařství,Čeladná,73912,,1,Moravskoslezský kraj,49.548193168806,18.337839311288,,,Samost. ordinace všeob. prakt. lékaře,praktik,1,praktik,,,čeladná,73912,čeladná,73912,598071,
DENTICULUS s.r.o.,Samostatná ordinace PL - stomatologa,primární ambulantní péče,zubní lékařství,Čeladná,73912,,1,Moravskoslezský kraj,49.548193168806,18.337839311288,,,Samostatná ordinace PL - stomatologa,zubař,3,zubař,,,čeladná,73912,čeladná,73912,598071,
MUDr. Helal Al-Saheb,Sam.ord.prakt.lékaře pro děti a dorost,primární ambulantní péče,praktické lékařství pro děti a dorost,Čeladná,73912,,1,Moravskoslezský kraj,49.548193168806,18.337839311288,,,Sam.ord.prakt.lékaře pro děti a dorost,pediatr,2,pediatr,,,čeladná,73912,čeladná,73912,598071,
Viadent s.r.o.,Samostatná ordinace PL - stomatologa,primární ambulantní péče,zubní lékařství,Čepí,53332,,79,Pardubický kraj,49.986852203561,15.716652739601,,,Samostatná ordinace PL - stomatologa,zubař,3,zubař,,,čepí,53332,čepí,53332,574864,
Praktický lékař Loučovice s.r.o.,Samost. ordinace všeob. prakt. lékaře,ambulantní péče,všeobecné praktické lékařství,Černá v Pošumaví,38223,,115,Jihočeský kraj,48.737643686732,14.106537527006,,,Samost. ordinace všeob. prakt. lékaře,praktik,1,praktik,,,černá v pošumaví,38223,černá v pošumaví,38223,545457,
MDDr. Barbora Stulíková,Samostatná ordinace PL - stomatologa,primární ambulantní péče,zubní lékařství,Černilov,50343,,35,Královéhradecký kraj,50.260749957224,15.923264660526,,,Samostatná ordinace PL - stomatologa,zubař,3,zubař,,,černilov,50343,černilov,50343,569917,
MUDr. Karel Oberreiter,Samost. ordinace všeob. prakt. lékaře,primární ambulantní péče,všeobecné praktické lékařství,Černilov,50343,,38,Královéhradecký kraj,50.26354608621,15.925427610049,,,Samost. ordinace všeob. prakt. lékaře,praktik,1,praktik,,,černilov,50343,černilov,50343,569917,
Mediclinic a.s.,Samost. ordinace všeob. prakt. lékaře,"primární ambulantní péče, zdrav. péče poskytovaná ve vlastním soc. prostředí pacienta - návštěvní služba","všeobecné praktické lékařství, všeobecné praktické lékařství",Červená Řečice,39446,,12,Kraj Vysočina,49.512044762464,15.179387763229,,,Samost. ordinace všeob. prakt. lékaře,praktik,1,praktik,,,červená řečice,39446,červená řečice,39446,547778,
MUDr. Pavel Rous,Samostatná ordinace PL - stomatologa,primární ambulantní péče,zubní lékařství,Červená Řečice,39446,,5,Kraj Vysočina,49.5116379055,15.178281812742,,,Samostatná ordinace PL - stomatologa,zubař,3,zubař,,,červená řečice,39446,červená řečice,39446,547778,
Červenovodská zubní ordinace s.r.o.,Samostatná ordinace PL - stomatologa,ambulantní péče,zubní lékařství,Červená Voda,56161,,771,Pardubický kraj,50.043340912723,16.7441947699,,,Samostatná ordinace PL - stomatologa,zubař,3,zubař,,,červená voda,56161,červená voda,56161,580015,
MUDr. Olga Měchurová,Sam.ord.prakt.lékaře pro děti a dorost,ambulantní péče,praktické lékařství pro děti a dorost,Červená Voda,56161,,330,Pardubický kraj,50.036958290638,16.743499446363,,,Sam.ord.prakt.lékaře pro děti a dorost,pediatr,2,pediatr,,,červená voda,56161,červená voda,56161,580015,
"MUDr. Ludmila Moravcová, praktický lékař pro dospělé Červená Voda",Samost. ordinace všeob. prakt. lékaře,ambulantní péče,všeobecné praktické lékařství,Červená Voda,56161,,330,Pardubický kraj,50.036958290638,16.743499446363,,,Samost. ordinace všeob. prakt. lékaře,praktik,1,praktik,,,červená voda,56161,červená voda,56161,580015,
MUDr. Jaroslava Sekerová,Samost. ordinace všeob. prakt. lékaře,ambulantní péče,všeobecné praktické lékařství,Červené Janovice,28542,,1,Středočeský kraj,49.835316974169,15.253692660207,,,Samost. ordinace všeob. prakt. lékaře,praktik,1,praktik,,,červené janovice,28542,červené janovice,28542,534021,
MUDr. Jiří Machů,Samost. ordinace všeob. prakt. lékaře,ambulantní péče,všeobecné praktické lékařství,Červené Janovice,28542,,213,Středočeský kraj,49.8324485151,15.258035735246,,,Samost. ordinace všeob. prakt. lékaře,praktik,1,praktik,,,červené janovice,28542,červené janovice,28542,534021,
AVR-Dent s.r.o.,Samostatná ordinace PL - stomatologa,ambulantní péče,"zubní lékařství, zubní lékařství",Červené Janovice,28542,,36,Středočeský kraj,49.834800059338,15.253047313063,,,Samostatná ordinace PL - stomatologa,zubař,3,zubař,,,červené janovice,28542,červené janovice,28542,534021,
MUDr. Pučalík s.r.o.,Samost. ordinace všeob. prakt. lékaře,"ambulantní péče, zdrav. péče poskytovaná ve vlastním soc. prostředí pacienta - návštěvní služba","všeobecné praktické lékařství, všeobecné praktické lékařství",Česká Bělá,58261,,122,Kraj Vysočina,49.643400353059,15.691187282198,,,Samost. ordinace všeob. prakt. lékaře,praktik,1,praktik,,,česká bělá,58261,česká bělá,58261,568503,
MUDr. Josef Pullmann,Samostatná ordinace PL - stomatologa,ambulantní péče,zubní lékařství,Česká Bělá,58261,,122,Kraj Vysočina,49.643400353059,15.691187282198,,,Samostatná ordinace PL - stomatologa,zubař,3,zubař,,,česká bělá,58261,česká bělá,58261,568503,
PLAMAS s.r.o.,Sam.ord.prakt.lékaře pro děti a dorost,ambulantní péče,praktické lékařství pro děti a dorost,Česká Třebová,56002,,205,Pardubický kraj,49.920797639714,16.434723357986,,,Sam.ord.prakt.lékaře pro děti a dorost,pediatr,2,pediatr,,,česká třebová,56002,česká třebová,56002,580031,
Stomatologická ordinace Klinovská s.r.o.,Samostatná ordinace PL - stomatologa,ambulantní péče,zubní lékařství,Český Krumlov,38101,,100,Jihočeský kraj,48.823756381319,14.314737677899,,,Samostatná ordinace PL - stomatologa,zubař,3,zubař,,,český krumlov,38101,český krumlov,38101,545392,
MUDr. Tomáš Morava,Samost. ordinace všeob. prakt. lékaře,ambulantní péče,všeobecné praktické lékařství,Český Rudolec,37883,,9,Jihočeský kraj,49.068478103633,15.324496184441,,,Samost. ordinace všeob. prakt. lékaře,praktik,1,praktik,,,český rudolec,37883,český rudolec,37883,546097,
MUDr. Jan Nýdl - praktický lékař pro dospělé,Samost. ordinace všeob. prakt. lékaře,ambulantní péče,"všeobecné praktické lékařství, vnitřní lékařství",Čestice,38719,,180,Jihočeský kraj,49.16862110904,13.804735850195,,,Samost. ordinace všeob. prakt. lékaře,praktik,1,praktik,,,čestice,38719,čestice,38719,550957,
Všeobecný lékař Posázaví s.r.o.,Samost. ordinace všeob. prakt. lékaře,primární ambulantní péče,všeobecné praktické lékařství,Čestín,28510,,113,Středočeský kraj,49.808202823751,15.102445136946,,,Samost. ordinace všeob. prakt. lékaře,praktik,1,praktik,,,čestín,28510,čestín,28510,534030,
MDDr. Adam Kopecký,Samostatná ordinace PL - stomatologa,ambulantní péče,zubní lékařství,Čimelice,39804,,150,Jihočeský kraj,49.469223081439,14.069653560875,,,Samostatná ordinace PL - stomatologa,zubař,3,zubař,,,čimelice,39804,čimelice,39804,549339,
MUDr. Helena Pohořská - praktická lékařka s.r.o.,Samost. ordinace všeob. prakt. lékaře,ambulantní péče,všeobecné praktické lékařství,Čimelice,39804,,268,Jihočeský kraj,49.468190272266,14.072160384933,,,Samost. ordinace všeob. prakt. lékaře,praktik,1,praktik,,,čimelice,39804,čimelice,39804,549339,
MUDr. Petra Šmelcová s.r.o.,Samost. ordinace všeob. prakt. lékaře,primární ambulantní péče,všeobecné praktické lékařství,Činěves,28901,,250,Středočeský kraj,50.22800467261,15.215201334984,,,Samost. ordinace všeob. prakt. lékaře,praktik,1,praktik,,,činěves,28901,činěves,28901,537080,
MUDr. Vendula Barešová s.r.o.,Samost. ordinace všeob. prakt. lékaře,ambulantní péče,všeobecné praktické lékařství,Činěves,28901,,250,Středočeský kraj,50.22800467261,15.215201334984,,,Samost. ordinace všeob. prakt. lékaře,praktik,1,praktik,,,činěves,28901,činěves,28901,537080,
MUDr. David Dezort,Samost. ordinace všeob. prakt. lékaře,ambulantní péče,všeobecné praktické lékařství,Čistá,56956,,376,Pardubický kraj,49.825574509499,16.33033248425,,,Samost. ordinace všeob. prakt. lékaře,praktik,1,praktik,,,čistá,56956,čistá,56956,577944,
MUDr. Martin Zelený - lékař,Samost. ordinace všeob. prakt. lékaře,ambulantní péče,všeobecné praktické lékařství,Čistá,29423,,281,Středočeský kraj,50.472338160872,14.842457616525,,,Samost. ordinace všeob. prakt. lékaře,praktik,1,praktik,,,čistá,29423,čistá,29423,535630,
MUDr. Michal Fikejz,"Sam.ord.prakt.lékaře pro děti a dorost, Samost. ordinace všeob. prakt. lékaře",ambulantní péče,"všeobecné praktické lékařství, praktické lékařství pro děti a dorost",Čížová,39831,,75,Jihočeský kraj,49.356018958228,14.095459313859,,,"Sam.ord.prakt.lékaře pro děti a dorost, Samost. ordinace všeob. prakt. lékaře",pediatr,2,pediatr,,,čížová,39831,čížová,39831,549347,
MUDr. Marie Kučerová s.r.o.,"Samost. ordinace všeob. prakt. lékaře, Sam.ord.prakt.lékaře pro děti a dorost",ambulantní péče,"všeobecné praktické lékařství, praktické lékařství pro děti a dorost",Čkyně,38481,,318,Jihočeský kraj,49.113137634655,13.82164928219,,,"Samost. ordinace všeob. prakt. lékaře, Sam.ord.prakt.lékaře pro děti a dorost",pediatr,2,pediatr,,,čkyně,38481,čkyně,38481,550167,
MUDr. Jan Toman stomatochirurgie s.r.o.,Samostatná ordinace PL - stomatologa,ambulantní péče,"zubní lékařství, zubní lékařství",Čkyně,38481,,134,Jihočeský kraj,49.115101643836,13.827989981609,,,Samostatná ordinace PL - stomatologa,zubař,3,zubař,,,čkyně,38481,čkyně,38481,550167,
MUDr. Marie Křížová s.r.o.,Samost. ordinace všeob. prakt. lékaře,ambulantní péče,všeobecné praktické lékařství,Čkyně,38481,,79,Jihočeský kraj,49.114871139183,13.82644944094,,,Samost. ordinace všeob. prakt. lékaře,praktik,1,praktik,,,čkyně,38481,čkyně,38481,550167,
MUDr. Ondřej Trávníček,Samost. ordinace všeob. prakt. lékaře,primární ambulantní péče,všeobecné praktické lékařství,Dalečín,59241,,30,Kraj Vysočina,49.591893360583,16.243969903879,,,Samost. ordinace všeob. prakt. lékaře,praktik,1,praktik,,,dalečín,59241,dalečín,59241,595454,
Med-Cin s.r.o.,Samost. ordinace všeob. prakt. lékaře,"primární ambulantní péče, zdrav. péče poskytovaná ve vlastním soc. prostředí pacienta - návštěvní služba","všeobecné praktické lékařství, všeobecné praktické lékařství",Dalešice,67554,,87,Kraj Vysočina,49.12875027009,16.081470502318,,,Samost. ordinace všeob. prakt. lékaře,praktik,1,praktik,,,dalešice,67554,dalešice,67554,590517,
MUDr. Zbyněk Černý,Samost. ordinace všeob. prakt. lékaře,primární ambulantní péče,všeobecné praktické lékařství,Damníkov,56123,,76,Pardubický kraj,49.870080419822,16.562727836222,,,Samost. ordinace všeob. prakt. lékaře,praktik,1,praktik,,,damníkov,56123,damníkov,56123,580074,
Dent Deblin s.r.o.,Samostatná ordinace PL - stomatologa,ambulantní péče,zubní lékařství,Deblín,66475,,320,Jihomoravský kraj,49.319778325579,16.346075340401,,,Samostatná ordinace PL - stomatologa,zubař,3,zubař,,,deblín,66475,deblín,66475,582948,
MDDr. Marta Adamová,Samostatná ordinace PL - stomatologa,primární ambulantní péče,zubní lékařství,Deblín,66475,,320,Jihomoravský kraj,49.319778325579,16.346075340401,,,Samostatná ordinace PL - stomatologa,zubař,3,zubař,,,deblín,66475,deblín,66475,582948,
MUDr. Dagmar Danielová,Samost. ordinace všeob. prakt. lékaře,primární ambulantní péče,všeobecné praktické lékařství,Deblín,66475,,320,Jihomoravský kraj,49.319778325579,16.346075340401,,,Samost. ordinace všeob. prakt. lékaře,praktik,1,praktik,,,deblín,66475,deblín,66475,582948,
MUDr. Jaroslav Schmitt,Samostatná ordinace PL - stomatologa,ambulantní péče,zubní lékařství,Děčín,40502,,59,Ústecký kraj,50.763093658973,14.241673224462,,,Samostatná ordinace PL - stomatologa,zubař,3,zubař,,,děčín,40502,děčín,40502,562335,
MUDr. Roman Fridrichovský,Samost. ordinace všeob. prakt. lékaře,ambulantní péče,všeobecné praktické lékařství,Dešná,37873,,77,Jihočeský kraj,48.957853265736,15.54245410303,,,Samost. ordinace všeob. prakt. lékaře,praktik,1,praktik,,,dešná,37873,dešná,37873,546143,
Jiná ordinace s.r.o.,Samost. ordinace všeob. prakt. lékaře,ambulantní péče,všeobecné praktické lékařství,Deštné v Orlických horách,51791,,133,Královéhradecký kraj,50.303704770246,16.351261153178,,,Samost. ordinace všeob. prakt. lékaře,praktik,1,praktik,,,deštné v orlických horách,51791,deštné v orlických horách,51791,576247,
Horský doktor s.r.o.,Sam.ord.prakt.lékaře pro děti a dorost,primární ambulantní péče,praktické lékařství pro děti a dorost,Deštné v Orlických horách,51791,,164,Královéhradecký kraj,50.30077362818,16.358371861723,,,Sam.ord.prakt.lékaře pro děti a dorost,pediatr,2,pediatr,,,deštné v orlických horách,51791,deštné v orlických horách,51791,576247,
MDDr. Adéla Sobková,Samostatná ordinace PL - stomatologa,ambulantní péče,zubní lékařství,Dětmarovice,73571,,900,Moravskoslezský kraj,49.894301013692,18.459724130981,,,Samostatná ordinace PL - stomatologa,zubař,3,zubař,,,dětmarovice,73571,dětmarovice,73571,598941,
MUDr. Kateřina Grabková,Samost. ordinace všeob. prakt. lékaře,primární ambulantní péče,všeobecné praktické lékařství,Dětmarovice,73571,,900,Moravskoslezský kraj,49.894301013692,18.459724130981,,,Samost. ordinace všeob. prakt. lékaře,praktik,1,praktik,,,dětmarovice,73571,dětmarovice,73571,598941,
MUDr. Tatiana Valicová,Samost. ordinace všeob. prakt. lékaře,primární ambulantní péče,všeobecné praktické lékařství,Dětmarovice,73571,,1040,Moravskoslezský kraj,49.906635239655,18.46245216717,,,Samost. ordinace všeob. prakt. lékaře,praktik,1,praktik,,,dětmarovice,73571,dětmarovice,73571,598941,
Kalmar Medical spol. s r.o.,Samost. ordinace všeob. prakt. lékaře,primární ambulantní péče,všeobecné praktické lékařství,Dětřichov nad Bystřicí,79303,,57,Moravskoslezský kraj,49.830093671967,17.400129666877,,,Samost. ordinace všeob. prakt. lékaře,praktik,1,praktik,,,dětřichov nad bystřicí,79303,dětřichov nad bystřicí,79303,597252,
JAMUS s.r.o.,Samost. ordinace všeob. prakt. lékaře,ambulantní péče,všeobecné praktické lékařství,Dírná,39127,,33,Jihočeský kraj,49.243036879098,14.844695313631,,,Samost. ordinace všeob. prakt. lékaře,praktik,1,praktik,,,dírná,39127,dírná,39127,552208,
MUDr. HUBAČOVÁ s.r.o.,Samost. ordinace všeob. prakt. lékaře,primární ambulantní péče,všeobecné praktické lékařství,Diváky,69171,,32,Jihomoravský kraj,48.988536311035,16.791828422405,,,Samost. ordinace všeob. prakt. lékaře,praktik,1,praktik,,,diváky,69171,diváky,69171,584401,
Praktik Chlumčany s.r.o.,Samost. ordinace všeob. prakt. lékaře,ambulantní péče,všeobecné praktické lékařství,Dnešice,33443,,232,Plzeňský kraj,49.60572800645,13.264425232361,,,Samost. ordinace všeob. prakt. lékaře,praktik,1,praktik,,,dnešice,33443,dnešice,33443,557668,
Praktik Chlumčany s.r.o.,Samost. ordinace všeob. prakt. lékaře,ambulantní péče,všeobecné praktické lékařství,Dnešice,33443,,29,Plzeňský kraj,49.604789014608,13.264889116655,,,Samost. ordinace všeob. prakt. lékaře,praktik,1,praktik,,,dnešice,33443,dnešice,33443,557668,
MDDr. Kateřina Koutná,Samostatná ordinace PL - stomatologa,primární ambulantní péče,zubní lékařství,Dobrá,73951,,78,Moravskoslezský kraj,49.674075815306,18.414660957132,,,Samostatná ordinace PL - stomatologa,zubař,3,zubař,,,dobrá,73951,dobrá,73951,598089,
Doktor Moravec s.r.o.,Samost. ordinace všeob. prakt. lékaře,primární ambulantní péče,všeobecné praktické lékařství,Dobrá,73951,,78,Moravskoslezský kraj,49.674075815306,18.414660957132,,,Samost. ordinace všeob. prakt. lékaře,praktik,1,praktik,,,dobrá,73951,dobrá,73951,598089,
MUDr. Iva Kučerová,Sam.ord.prakt.lékaře pro děti a dorost,primární ambulantní péče,praktické lékařství pro děti a dorost,Dobrá,73951,,78,Moravskoslezský kraj,49.674075815306,18.414660957132,,,Sam.ord.prakt.lékaře pro děti a dorost,pediatr,2,pediatr,,,dobrá,73951,dobrá,73951,598089,
MUDr. Jan Švec,Samost. ordinace všeob. prakt. lékaře,primární ambulantní péče,všeobecné praktické lékařství,Dobré,51793,,150,Královéhradecký kraj,50.269165426985,16.262518184183,,,Samost. ordinace všeob. prakt. lékaře,praktik,1,praktik,,,dobré,51793,dobré,51793,576263,
"MUDr. L. Petr, s.r.o.",Samost. ordinace všeob. prakt. lékaře,primární ambulantní péče,všeobecné praktické lékařství,Dobřenice,50325,,32,Královéhradecký kraj,50.149848081439,15.643548471009,,,Samost. ordinace všeob. prakt. lékaře,praktik,1,praktik,,,dobřenice,50325,dobřenice,50325,569968,
MUDr. Eliška Rozsívalová,Samostatná ordinace PL - stomatologa,primární ambulantní péče,zubní lékařství,Dobřenice,50325,,32,Královéhradecký kraj,50.149848081439,15.643548471009,,,Samostatná ordinace PL - stomatologa,zubař,3,zubař,,,dobřenice,50325,dobřenice,50325,569968,
MUDr. Jana Musilová,Samost. ordinace všeob. prakt. lékaře,ambulantní péče,všeobecné praktické lékařství,Dobřív,33844,,305,Plzeňský kraj,49.715959029957,13.686796205325,,,Samost. ordinace všeob. prakt. lékaře,praktik,1,praktik,,,dobřív,33844,dobřív,33844,559776,
"MUDr. Miroslava Kloudová, s.r.o.",Samost. ordinace všeob. prakt. lékaře,ambulantní péče,všeobecné praktické lékařství,Dohalice,50313,,30,Královéhradecký kraj,50.281163769547,15.690013942028,,,Samost. ordinace všeob. prakt. lékaře,praktik,1,praktik,,,dohalice,50313,dohalice,50313,569976,
Pešáková Praktik s.r.o.,Samost. ordinace všeob. prakt. lékaře,ambulantní péče,všeobecné praktické lékařství,Dolany,78316,,63,Olomoucký kraj,49.656707706879,17.355382851727,,,Samost. ordinace všeob. prakt. lékaře,praktik,1,praktik,,,dolany,78316,dolany,78316,501646,
MDDr. Martina Ťažká,Samostatná ordinace PL - stomatologa,ambulantní péče,zubní lékařství,Dolany,78316,,417,Olomoucký kraj,49.646893937864,17.323093906841,,,Samostatná ordinace PL - stomatologa,zubař,3,zubař,,,dolany,78316,dolany,78316,501646,
MDDr. Martina Babincová,Samostatná ordinace PL - stomatologa,ambulantní péče,zubní lékařství,Dolany,78316,,417,Olomoucký kraj,49.646893937864,17.323093906841,,,Samostatná ordinace PL - stomatologa,zubař,3,zubař,,,dolany,78316,dolany,78316,501646,
MUDr. Vladimíra Hamalová,Sam.ord.prakt.lékaře pro děti a dorost,primární ambulantní péče,praktické lékařství pro děti a dorost,Dolany,78316,,417,Olomoucký kraj,49.646893937864,17.323093906841,,,Sam.ord.prakt.lékaře pro děti a dorost,pediatr,2,pediatr,,,dolany,78316,dolany,78316,501646,
MUDr. Jaroslav Hlačík,Samostatná ordinace PL - stomatologa,ambulantní péče,zubní lékařství,Dolany,78316,,417,Olomoucký kraj,49.646893937864,17.323093906841,,,Samostatná ordinace PL - stomatologa,zubař,3,zubař,,,dolany,78316,dolany,78316,501646,
"MUDr. Jana Srbová, praktický lékař pro dospělé",Samost. ordinace všeob. prakt. lékaře,ambulantní péče,všeobecné praktické lékařství,Dolany,33901,,188,Plzeňský kraj,49.443132904357,13.248439840679,,,Samost. ordinace všeob. prakt. lékaře,praktik,1,praktik,,,dolany,33901,dolany,33901,556106,
MUDr. Radana Pavelková s.r.o.,Samostatná ordinace PL - stomatologa,primární ambulantní péče,zubní lékařství,Dolní Bečva,75655,,577,Zlínský kraj,49.456427241284,18.193689011268,,,Samostatná ordinace PL - stomatologa,zubař,3,zubař,,,dolní bečva,75655,dolní bečva,75655,541800,
Bečvanská zdravotní s.r.o.,Samost. ordinace všeob. prakt. lékaře,primární ambulantní péče,všeobecné praktické lékařství,Dolní Bečva,75655,,577,Zlínský kraj,49.456427241284,18.193689011268,,,Samost. ordinace všeob. prakt. lékaře,praktik,1,praktik,,,dolní bečva,75655,dolní bečva,75655,541800,
"MUDr. Anna Křiklánová, ordinace pro děti a dorost",Sam.ord.prakt.lékaře pro děti a dorost,ambulantní péče,praktické lékařství pro děti a dorost,Dolní Bělá,33152,,162,Plzeňský kraj,49.894460771208,13.273327138135,,,Sam.ord.prakt.lékaře pro děti a dorost,pediatr,2,pediatr,,,dolní bělá,33152,dolní bělá,33152,558796,
MUDr. Tomáš Křiklán,Samost. ordinace všeob. prakt. lékaře,ambulantní péče,všeobecné praktické lékařství,Dolní Bělá,33152,,162,Plzeňský kraj,49.894460771208,13.273327138135,,,Samost. ordinace všeob. prakt. lékaře,praktik,1,praktik,,,dolní bělá,33152,dolní bělá,33152,558796,
MUDr. Zdeňka Chocholatá,Samostatná ordinace PL - stomatologa,ambulantní péče,"Zubní technik, zubní lékařství",Dolní Bělá,33152,,162,Plzeňský kraj,49.894460771208,13.273327138135,,,Samostatná ordinace PL - stomatologa,zubař,3,zubař,,,dolní bělá,33152,dolní bělá,33152,558796,
Pediatrie Mělník s.r.o.,Sam.ord.prakt.lékaře pro děti a dorost,primární ambulantní péče,pediatrie,Dolní Beřkovice,27701,,317,Středočeský kraj,50.391770630561,14.450868212443,,,Sam.ord.prakt.lékaře pro děti a dorost,pediatr,2,pediatr,,,dolní beřkovice,27701,dolní beřkovice,27701,534765,
MUDr. Sylva Valsová s.r.o.,Samost. ordinace všeob. prakt. lékaře,ambulantní péče,všeobecné praktické lékařství,Dolní Beřkovice,27701,,317,Středočeský kraj,50.391770630561,14.450868212443,,,Samost. ordinace všeob. prakt. lékaře,praktik,1,praktik,,,dolní beřkovice,27701,dolní beřkovice,27701,534765,
MUDr. Zuzana Majvaldová s.r.o.,Samost. ordinace všeob. prakt. lékaře,primární ambulantní péče,všeobecné praktické lékařství,Dolní Čermná,56153,,101,Pardubický kraj,49.978735259328,16.565258998443,,,Samost. ordinace všeob. prakt. lékaře,praktik,1,praktik,,,dolní čermná,56153,dolní čermná,56153,580112,
"MUDr. Martin Appl, PL stomatolog",Samostatná ordinace PL - stomatologa,ambulantní péče,zubní lékařství,Dolní Čermná,56153,,222,Pardubický kraj,49.979180661696,16.567576587107,,,Samostatná ordinace PL - stomatologa,zubař,3,zubař,,,dolní čermná,56153,dolní čermná,56153,580112,
MUDr. Zdeňka Novotná,"Sam.ord.prakt.lékaře pro děti a dorost, Samost. ordinace všeob. prakt. lékaře",primární ambulantní péče,"všeobecné praktické lékařství, praktické lékařství pro děti a dorost",Dolní Čermná,56153,,101,Pardubický kraj,49.978735259328,16.565258998443,,,"Sam.ord.prakt.lékaře pro děti a dorost, Samost. ordinace všeob. prakt. lékaře",pediatr,2,pediatr,,,dolní čermná,56153,dolní čermná,56153,580112,
Všeobecný lékař s.r.o.,Samost. ordinace všeob. prakt. lékaře,primární ambulantní péče,všeobecné praktické lékařství,Dolní Dobrouč,56102,,372,Pardubický kraj,49.985164933603,16.500495454456,,,Samost. ordinace všeob. prakt. lékaře,praktik,1,praktik,,,dolní dobrouč,56102,dolní dobrouč,56102,580121,
MUDr. Tomáš Mertlík,Sam.ord.prakt.lékaře pro děti a dorost,ambulantní péče,praktické lékařství pro děti a dorost,Dolní Dobrouč,56102,,446,Pardubický kraj,49.993401887178,16.498053440335,,,Sam.ord.prakt.lékaře pro děti a dorost,pediatr,2,pediatr,,,dolní dobrouč,56102,dolní dobrouč,56102,580121,
MUDr. Michaela Vávrová,Samostatná ordinace PL - stomatologa,primární ambulantní péče,zubní lékařství,Dolní Dobrouč,56102,,446,Pardubický kraj,49.993401887178,16.498053440335,,,Samostatná ordinace PL - stomatologa,zubař,3,zubař,,,dolní dobrouč,56102,dolní dobrouč,56102,580121,
MUDr. Bohuslav Pitřík,Samost. ordinace všeob. prakt. lékaře,primární ambulantní péče,všeobecné praktické lékařství,Dolní Domaslavice,73938,,31,Moravskoslezský kraj,49.708624747516,18.479804957982,,,Samost. ordinace všeob. prakt. lékaře,praktik,1,praktik,,,dolní domaslavice,73938,dolní domaslavice,73938,598101,
"""MUDr. Bruna v.o.s.""",Samostatná ordinace PL - stomatologa,ambulantní péče,zubní lékařství,Dolní Dvořiště,38272,,161,Jihočeský kraj,48.65048145277,14.452603970623,,,Samostatná ordinace PL - stomatologa,zubař,3,zubař,,,dolní dvořiště,38272,dolní dvořiště,38272,545465,
MUDr. Josef Dvořák - praktický lékař,Samost. ordinace všeob. prakt. lékaře,ambulantní péče,všeobecné praktické lékařství,Dolní Dvořiště,38272,,162,Jihočeský kraj,48.654702750307,14.453038458322,,,Samost. ordinace všeob. prakt. lékaře,praktik,1,praktik,,,dolní dvořiště,38272,dolní dvořiště,38272,545465,
MUDr. Pavla Růžičková - praktický lékař pro děti a dorost,Sam.ord.prakt.lékaře pro děti a dorost,ambulantní péče,praktické lékařství pro děti a dorost,Dolní Dvořiště,38272,,171,Jihočeský kraj,48.655950076537,14.45295865795,,,Sam.ord.prakt.lékaře pro děti a dorost,pediatr,2,pediatr,,,dolní dvořiště,38272,dolní dvořiště,38272,545465,
MUDr. Radomír Havel,Samost. ordinace všeob. prakt. lékaře,ambulantní péče,všeobecné praktické lékařství,Dolní Hbity,26262,,55,Středočeský kraj,49.656491625147,14.173375159611,,,Samost. ordinace všeob. prakt. lékaře,praktik,1,praktik,,,dolní hbity,26262,dolní hbity,26262,540129,
"MUDr. Kristýna Kališová, s.r.o.",Samost. ordinace všeob. prakt. lékaře,primární ambulantní péče,všeobecné praktické lékařství,Dolní Kalná,54374,,40,Královéhradecký kraj,50.542291367872,15.64103864939,,,Samost. ordinace všeob. prakt. lékaře,praktik,1,praktik,,,dolní kalná,54374,dolní kalná,54374,579157,
MUDr. Jiří Jůza,Samostatná ordinace PL - stomatologa,primární ambulantní péče,zubní lékařství,Dolní Kalná,54374,,40,Královéhradecký kraj,50.542291367872,15.64103864939,,,Samostatná ordinace PL - stomatologa,zubař,3,zubař,,,dolní kalná,54374,dolní kalná,54374,579157,
Max - medik s.r.o.,Samost. ordinace všeob. prakt. lékaře,primární ambulantní péče,všeobecné praktické lékařství,Dolní Kralovice,25768,,8,Středočeský kraj,49.645457268304,15.179313795442,,,Samost. ordinace všeob. prakt. lékaře,praktik,1,praktik,,,dolní kralovice,25768,dolní kralovice,25768,529648,
Topdent s.r.o.,Samostatná ordinace PL - stomatologa,primární ambulantní péče,zubní lékařství,Dolní Kralovice,25768,,8,Středočeský kraj,49.645457268304,15.179313795442,,,Samostatná ordinace PL - stomatologa,zubař,3,zubař,,,dolní kralovice,25768,dolní kralovice,25768,529648,
MUDr. Jelenka Klímová,Samostatná ordinace PL - stomatologa,ambulantní péče,zubní lékařství,Dolní Loučky,59455,,296,Jihomoravský kraj,49.360752697696,16.356361042657,,,Samostatná ordinace PL - stomatologa,zubař,3,zubař,,,dolní loučky,59455,dolní loučky,59455,595527,
MUDr. Alena Valíková,Samost. ordinace všeob. prakt. lékaře,primární ambulantní péče,všeobecné praktické lékařství,Dolní Loučky,59455,,296,Jihomoravský kraj,49.360752697696,16.356361042657,,,Samost. ordinace všeob. prakt. lékaře,praktik,1,praktik,,,dolní loučky,59455,dolní loučky,59455,595527,
MUDr. Ivana Mašková,Samost. ordinace všeob. prakt. lékaře,primární ambulantní péče,všeobecné praktické lékařství,Dolní Loučky,59455,,22,Jihomoravský kraj,49.360905039679,16.361741694406,,,Samost. ordinace všeob. prakt. lékaře,praktik,1,praktik,,,dolní loučky,59455,dolní loučky,59455,595527,
MUDr. Jitka Gregušová,Sam.ord.prakt.lékaře pro děti a dorost,primární ambulantní péče,praktické lékařství pro děti a dorost,Dolní Loučky,59455,,296,Jihomoravský kraj,49.360752697696,16.356361042657,,,Sam.ord.prakt.lékaře pro děti a dorost,pediatr,2,pediatr,,,dolní loučky,59455,dolní loučky,59455,595527,
MUDr. Vladislav Sikora,Samost. ordinace všeob. prakt. lékaře,primární ambulantní péče,všeobecné praktické lékařství,Dolní Lutyně,,U Školy,432,Moravskoslezský kraj,,,,,Samost. ordinace všeob. prakt. lékaře,praktik,1,praktik,,,dolní lutyně,,,,,
MUDr. Stanislava Brhelová s.r.o.,Samost. ordinace všeob. prakt. lékaře,"ambulantní péče, zdrav. péče poskytovaná ve vlastním soc. prostředí pacienta - návštěvní služba","všeobecné praktické lékařství, všeobecné praktické lékařství",Dolní Město,58233,,254,Kraj Vysočina,49.628699376138,15.383200037751,,,Samost. ordinace všeob. prakt. lékaře,praktik,1,praktik,,,dolní město,58233,dolní město,58233,568601,
MUDr. Věra Špicerová,Samost. ordinace všeob. prakt. lékaře,primární ambulantní péče,všeobecné praktické lékařství,Dolní Moravice,79501,,40,Moravskoslezský kraj,49.977573250775,17.323642900892,,,Samost. ordinace všeob. prakt. lékaře,praktik,1,praktik,,,dolní moravice,79501,dolní moravice,79501,597287,
MUDr. Jana Koutecká,Samostatná ordinace PL - stomatologa,primární ambulantní péče,zubní lékařství,Dolní Podluží,40755,,326,Ústecký kraj,50.882686940476,14.574638808852,,,Samostatná ordinace PL - stomatologa,zubař,3,zubař,,,dolní podluží,40755,dolní podluží,40755,562432,
MUDr. Lenka Martinková,Samost. ordinace všeob. prakt. lékaře,primární ambulantní péče,všeobecné praktické lékařství,Dolní Podluží,40755,,432,Ústecký kraj,50.879795696297,14.580704790112,,,Samost. ordinace všeob. prakt. lékaře,praktik,1,praktik,,,dolní podluží,40755,dolní podluží,40755,562432,
MUDr. Eva Gerhátová s.r.o.,Sam.ord.prakt.lékaře pro děti a dorost,primární ambulantní péče,praktické lékařství pro děti a dorost,Dolní Roveň,53371,,147,Pardubický kraj,50.026454031165,15.973597615078,,,Sam.ord.prakt.lékaře pro děti a dorost,pediatr,2,pediatr,,,dolní roveň,53371,dolní roveň,53371,574911,
MUDr. Jana Ižáková,Samost. ordinace všeob. prakt. lékaře,ambulantní péče,všeobecné praktické lékařství,Dolní Roveň,53371,,147,Pardubický kraj,50.026454031165,15.973597615078,,,Samost. ordinace všeob. prakt. lékaře,praktik,1,praktik,,,dolní roveň,53371,dolní roveň,53371,574911,
MUDr. Marie Kroupová s.r.o.,Sam.ord.prakt.lékaře pro děti a dorost,"primární ambulantní péče, zdrav. péče poskytovaná ve vlastním soc. prostředí pacienta - návštěvní služba","praktické lékařství pro děti a dorost, praktické lékařství pro děti a dorost",Dolní Rožínka,59251,,81,Kraj Vysočina,49.476923274709,16.208761253928,,,Sam.ord.prakt.lékaře pro děti a dorost,pediatr,2,pediatr,,,dolní rožínka,59251,dolní rožínka,59251,595535,
MUDr. Milan Lukáš s.r.o.,Samost. ordinace všeob. prakt. lékaře,"ambulantní péče, zdrav. péče poskytovaná ve vlastním soc. prostředí pacienta - návštěvní služba","všeobecné praktické lékařství, všeobecné praktické lékařství",Dolní Rožínka,59251,,81,Kraj Vysočina,49.476923274709,16.208761253928,,,Samost. ordinace všeob. prakt. lékaře,praktik,1,praktik,,,dolní rožínka,59251,dolní rožínka,59251,595535,
Orlaith s.r.o.,Samost. ordinace všeob. prakt. lékaře,ambulantní péče,všeobecné praktické lékařství,Dolní Újezd,75123,,155,Olomoucký kraj,49.546986796734,17.536807919979,,,Samost. ordinace všeob. prakt. lékaře,praktik,1,praktik,,,dolní újezd,75123,dolní újezd,75123,513199,
MUDr. Pavel Jílek DiS.,Samost. ordinace všeob. prakt. lékaře,primární ambulantní péče,všeobecné praktické lékařství,Dolní Újezd,56961,,383,Pardubický kraj,49.825181633623,16.255024742664,,,Samost. ordinace všeob. prakt. lékaře,praktik,1,praktik,,,dolní újezd,56961,dolní újezd,56961,577995,
MOLAR DENT s.r.o.,Samostatná ordinace PL - stomatologa,ambulantní péče,zubní lékařství,Dolní Újezd,56961,,383,Pardubický kraj,49.825181633623,16.255024742664,,,Samostatná ordinace PL - stomatologa,zubař,3,zubař,,,dolní újezd,56961,dolní újezd,56961,577995,
MUDr. Ludmila Kopecká,Sam.ord.prakt.lékaře pro děti a dorost,ambulantní péče,praktické lékařství pro děti a dorost,Dolní Újezd,56961,,383,Pardubický kraj,49.825181633623,16.255024742664,,,Sam.ord.prakt.lékaře pro děti a dorost,pediatr,2,pediatr,,,dolní újezd,56961,dolní újezd,56961,577995,
MUDr. Procházková - praktické zubní lékařství,Samostatná ordinace PL - stomatologa,ambulantní péče,zubní lékařství,Dolní Újezd,75123,,155,Olomoucký kraj,49.546986796734,17.536807919979,,,Samostatná ordinace PL - stomatologa,zubař,3,zubař,,,dolní újezd,75123,dolní újezd,75123,513199,
MUDr. RADKA VŮCHOVÁ,Samost. ordinace všeob. prakt. lékaře,ambulantní péče,všeobecné praktické lékařství,Dolní Žandov,35493,,221,Karlovarský kraj,50.018972573967,12.549950998028,,,Samost. ordinace všeob. prakt. lékaře,praktik,1,praktik,,,dolní žandov,35493,dolní žandov,35493,554502,
MUDr.Jana Valentová,Samostatná ordinace PL - stomatologa,ambulantní péče,zubní lékařství,Dolní Žandov,35493,,221,Karlovarský kraj,50.018972573967,12.549950998028,,,Samostatná ordinace PL - stomatologa,zubař,3,zubař,,,dolní žandov,35493,dolní žandov,35493,554502,
MUDr. Hana Vlková - pediatrie,Sam.ord.prakt.lékaře pro děti a dorost,ambulantní péče,praktické lékařství pro děti a dorost,Dolní Žandov,35493,,221,Karlovarský kraj,50.018972573967,12.549950998028,,,Sam.ord.prakt.lékaře pro děti a dorost,pediatr,2,pediatr,,,dolní žandov,35493,dolní žandov,35493,554502,
Všeobecný lékař Olomoucko s.r.o.,Samost. ordinace všeob. prakt. lékaře,ambulantní péče,všeobecné praktické lékařství,Doloplazy,79826,,15,Olomoucký kraj,49.351735604583,17.159818617087,,,Samost. ordinace všeob. prakt. lékaře,praktik,1,praktik,,,doloplazy,79826,doloplazy,79826,589454,
MUDr. Jiřina Františková,Samost. ordinace všeob. prakt. lékaře,"ambulantní péče, zdrav. péče poskytovaná ve vlastním soc. prostředí pacienta - návštěvní služba","všeobecné praktické lékařství, všeobecné praktické lékařství",Domamil,67543,,1,Kraj Vysočina,49.0838079758,15.693628111268,,,Samost. ordinace všeob. prakt. lékaře,praktik,1,praktik,,,domamil,67543,domamil,67543,590568,
VIVA MEDICA s.r.o.,Samost. ordinace všeob. prakt. lékaře,ambulantní péče,všeobecné praktické lékařství,Domaželice,75115,,123,Olomoucký kraj,49.42849802612,17.540113133128,,,Samost. ordinace všeob. prakt. lékaře,praktik,1,praktik,,,domaželice,75115,domaželice,75115,513211,
"MUDr. KRÁLOVÁ - VÁŠ LÉKAŘ, s.r.o.",Samost. ordinace všeob. prakt. lékaře,ambulantní péče,všeobecné praktické lékařství,Domoušice,43968,,32,Ústecký kraj,50.234121271382,13.730133789654,,,Samost. ordinace všeob. prakt. lékaře,praktik,1,praktik,,,domoušice,43968,domoušice,43968,566152,
PRACTICOM s.r.o.,Samost. ordinace všeob. prakt. lékaře,primární ambulantní péče,všeobecné praktické lékařství,Doubrava,73533,,444,Moravskoslezský kraj,49.858197290219,18.479586683005,,,Samost. ordinace všeob. prakt. lékaře,praktik,1,praktik,,,doubrava,73533,doubrava,73533,568864,
"MUDr. Ota Mach - praktický lékař pro dospělé, interní lékařství",Samost. ordinace všeob. prakt. lékaře,ambulantní péče,"všeobecné praktické lékařství, vnitřní lékařství",Doubravice,37006,,9,Jihočeský kraj,48.936531834733,14.510203584164,,,Samost. ordinace všeob. prakt. lékaře,praktik,1,praktik,,,doubravice,37006,doubravice,37006,535664,
MUDr. Marie Klepačová,Samost. ordinace všeob. prakt. lékaře,primární ambulantní péče,všeobecné praktické lékařství,Doubravice,54451,,54,Královéhradecký kraj,50.406870920688,15.760411516215,,,Samost. ordinace všeob. prakt. lékaře,praktik,1,praktik,,,doubravice,54451,doubravice,54451,579181,
Centrum pediatrie s.r.o.,Sam.ord.prakt.lékaře pro děti a dorost,primární ambulantní péče,praktické lékařství pro děti a dorost,Doubravník,59261,,9,Jihomoravský kraj,49.423155197977,16.352817620554,,,Sam.ord.prakt.lékaře pro děti a dorost,pediatr,2,pediatr,,,doubravník,59261,doubravník,59261,595551,
MUDr. Jan Zarivnij,Samost. ordinace všeob. prakt. lékaře,ambulantní péče,všeobecné praktické lékařství,Drahanovice,78344,,4,Olomoucký kraj,49.579625466071,17.077085908091,,,Samost. ordinace všeob. prakt. lékaře,praktik,1,praktik,,,drahanovice,78344,drahanovice,78344,501751,
MUDr. Karel Opichal,Samostatná ordinace PL - stomatologa,ambulantní péče,zubní lékařství,Drahanovice,78344,,4,Olomoucký kraj,49.579625466071,17.077085908091,,,Samostatná ordinace PL - stomatologa,zubař,3,zubař,,,drahanovice,78344,drahanovice,78344,501751,
MUDr. Jana Dadáková,Samostatná ordinace PL - stomatologa,ambulantní péče,zubní lékařství,Drahany,79861,,206,Olomoucký kraj,49.433236035503,16.899386514192,,,Samostatná ordinace PL - stomatologa,zubař,3,zubař,,,drahany,79861,drahany,79861,589462,
MUDr. Řezaninová Jana - praktická lékařka,Samost. ordinace všeob. prakt. lékaře,primární ambulantní péče,všeobecné praktické lékařství,Drásov,66424,,1,Jihomoravský kraj,49.331963442076,16.478394515561,,,Samost. ordinace všeob. prakt. lékaře,praktik,1,praktik,,,drásov,66424,drásov,66424,582972,
SANTEP s.r.o.,Samost. ordinace všeob. prakt. lékaře,ambulantní péče,všeobecné praktické lékařství,Drhovle,39701,,34,Jihočeský kraj,49.334194231784,14.040251999853,,,Samost. ordinace všeob. prakt. lékaře,praktik,1,praktik,,,drhovle,39701,drhovle,39701,549380,
MUDr. Alexandr Orálek s.r.o.,Sam.ord.prakt.lékaře pro děti a dorost,primární ambulantní péče,praktické lékařství pro děti a dorost,Drnovice,68304,,519,Jihomoravský kraj,49.277066005901,16.951750324846,,,Sam.ord.prakt.lékaře pro děti a dorost,pediatr,2,pediatr,,,drnovice,68304,drnovice,68304,593001,
MUDr. Eva Schreiberová,Samostatná ordinace PL - stomatologa,primární ambulantní péče,zubní lékařství,Drnovice,68304,,519,Jihomoravský kraj,49.277066005901,16.951750324846,,,Samostatná ordinace PL - stomatologa,zubař,3,zubař,,,drnovice,68304,drnovice,68304,593001,
MUDr. Jana Mezníková,Samost. ordinace všeob. prakt. lékaře,"primární ambulantní péče, specializovaná ambulantní péče","všeobecné praktické lékařství, všeobecné praktické lékařství",Drnovice,68304,,519,Jihomoravský kraj,49.277066005901,16.951750324846,,,Samost. ordinace všeob. prakt. lékaře,praktik,1,praktik,,,drnovice,68304,drnovice,68304,593001,
MUDr. Jiří Cajthaml,Samostatná ordinace PL - stomatologa,ambulantní péče,"zubní lékařství, zubní lékařství",Drozdov,26761,,29,Středočeský kraj,49.863207938504,13.838560789342,,,Samostatná ordinace PL - stomatologa,zubař,3,zubař,,,drozdov,26761,drozdov,26761,531154,
"BENE AMBULA, s.r.o.",Samost. ordinace všeob. prakt. lékaře,primární ambulantní péče,všeobecné praktické lékařství,Držkov,46824,,9,Liberecký kraj,50.687552616667,15.303359907824,,,Samost. ordinace všeob. prakt. lékaře,praktik,1,praktik,,,držkov,46824,držkov,46824,563561,
"MUDr. Zuzana Hýsková, zubní lékař",Samostatná ordinace PL - stomatologa,ambulantní péče,zubní lékařství,Držkov,46824,,257,Liberecký kraj,50.6882804375,15.29772107861,,,Samostatná ordinace PL - stomatologa,zubař,3,zubař,,,držkov,46824,držkov,46824,563561,
MUDr. Lázníček Rudolf - pediatrie,Sam.ord.prakt.lékaře pro děti a dorost,ambulantní péče,praktické lékařství pro děti a dorost,Dříteň,37351,,147,Jihočeský kraj,49.142160314998,14.345271003059,,,Sam.ord.prakt.lékaře pro děti a dorost,pediatr,2,pediatr,,,dříteň,37351,dříteň,37351,544426,
SALUDA s.r.o.,Samost. ordinace všeob. prakt. lékaře,ambulantní péče,všeobecné praktické lékařství,Dříteň,37351,,152,Jihočeský kraj,49.142326881104,14.344268583033,,,Samost. ordinace všeob. prakt. lékaře,praktik,1,praktik,,,dříteň,37351,dříteň,37351,544426,
MUDr. Petr Toman,Samostatná ordinace PL - stomatologa,ambulantní péče,zubní lékařství,Dříteň,37351,,147,Jihočeský kraj,49.142160314998,14.345271003059,,,Samostatná ordinace PL - stomatologa,zubař,3,zubař,,,dříteň,37351,dříteň,37351,544426,
MUDr. Marie Klepačová,Samost. ordinace všeob. prakt. lékaře,primární ambulantní péče,všeobecné praktické lékařství,Dubenec,54455,,208,Královéhradecký kraj,50.384277650841,15.78713047388,,,Samost. ordinace všeob. prakt. lékaře,praktik,1,praktik,,,dubenec,54455,dubenec,54455,579190,
MUDr. Radomír Havel,Samost. ordinace všeob. prakt. lékaře,ambulantní péče,všeobecné praktické lékařství,Dubenec,26101,,48,Středočeský kraj,49.696404574157,14.081142861739,,,Samost. ordinace všeob. prakt. lékaře,praktik,1,praktik,,,dubenec,26101,dubenec,26101,598381,
NURMIMED spol. s r.o.,Samost. ordinace všeob. prakt. lékaře,ambulantní péče,"všeobecné praktické lékařství, vnitřní lékařství",Dubné,37384,,34,Jihočeský kraj,48.976068735501,14.36192674098,,,Samost. ordinace všeob. prakt. lékaře,praktik,1,praktik,,,dubné,37384,dubné,37384,544442,
MUDr. Tomáš Bulan,Samostatná ordinace PL - stomatologa,ambulantní péče,zubní lékařství,Dubné,37384,,34,Jihočeský kraj,48.976068735501,14.36192674098,,,Samostatná ordinace PL - stomatologa,zubař,3,zubař,,,dubné,37384,dubné,37384,544442,
"MUDr. Ota Mach - praktický lékař pro dospělé, interní lékařství",Samost. ordinace všeob. prakt. lékaře,ambulantní péče,"všeobecné praktické lékařství, vnitřní lékařství",Dubné,37384,,34,Jihočeský kraj,48.976068735501,14.36192674098,,,Samost. ordinace všeob. prakt. lékaře,praktik,1,praktik,,,dubné,37384,dubné,37384,544442,
DK dental s.r.o.,Samostatná ordinace PL - stomatologa,primární ambulantní péče,zubní lékařství,Dukovany,67550,,269,Kraj Vysočina,49.088635810845,16.144734693191,,,Samostatná ordinace PL - stomatologa,zubař,3,zubař,,,dukovany,67550,dukovany,67550,590576,
Dümed s.r.o.,Samost. ordinace všeob. prakt. lékaře,"primární ambulantní péče, zdrav. péče poskytovaná ve vlastním soc. prostředí pacienta - návštěvní služba","všeobecné praktické lékařství, všeobecné praktické lékařství, radiologie a zobrazovací metody",Dukovany,67550,,269,Kraj Vysočina,49.088635810845,16.144734693191,,,Samost. ordinace všeob. prakt. lékaře,praktik,1,praktik,,,dukovany,67550,dukovany,67550,590576,
KARDIOVIT s.r.o.,Samost. ordinace všeob. prakt. lékaře,"ambulantní péče, zdrav. péče poskytovaná ve vlastním soc. prostředí pacienta - návštěvní služba","všeobecné praktické lékařství, všeobecné praktické lékařství",Dukovany,67556,,188,Kraj Vysočina,49.080444945154,16.191353861083,,,Samost. ordinace všeob. prakt. lékaře,praktik,1,praktik,,,dukovany,67556,dukovany,67556,590576,
MUDr. Helena Káfuňková,Samost. ordinace všeob. prakt. lékaře,"ambulantní péče, zdrav. péče poskytovaná ve vlastním soc. prostředí pacienta - návštěvní služba","všeobecné praktické lékařství, všeobecné praktické lékařství",Dukovany,67556,,188,Kraj Vysočina,49.080444945154,16.191353861083,,,Samost. ordinace všeob. prakt. lékaře,praktik,1,praktik,,,dukovany,67556,dukovany,67556,590576,
MUDr. Miloslava Němcová,Samost. ordinace všeob. prakt. lékaře,"ambulantní péče, zdrav. péče poskytovaná ve vlastním soc. prostředí pacienta - návštěvní služba","všeobecné praktické lékařství, všeobecné praktické lékařství",Dušejov,58805,,134,Kraj Vysočina,49.4087619707,15.430798227064,,,Samost. ordinace všeob. prakt. lékaře,praktik,1,praktik,,,dušejov,58805,dušejov,58805,587095,
MUDr. PŘINOSIL-PRAKTIK s.r.o.,Samost. ordinace všeob. prakt. lékaře,"primární ambulantní péče, specializovaná ambulantní péče","všeobecné praktické lékařství, všeobecné praktické lékařství",Dyjákovice,67126,,339,Jihomoravský kraj,48.772136035756,16.298379532838,,,Samost. ordinace všeob. prakt. lékaře,praktik,1,praktik,,,dyjákovice,67126,dyjákovice,67126,593974,
"Jan Císař, s.r.o.",Samostatná ordinace PL - stomatologa,primární ambulantní péče,zubní lékařství,Francova Lhota,75614,,325,Zlínský kraj,49.200280623203,18.109623952669,,,Samostatná ordinace PL - stomatologa,zubař,3,zubař,,,francova lhota,75614,francova lhota,75614,542644,
MEDIPSY s.r.o.,Samost. ordinace všeob. prakt. lékaře,primární ambulantní péče,všeobecné praktické lékařství,Francova Lhota,75614,,437,Zlínský kraj,49.196716207877,18.098870639683,,,Samost. ordinace všeob. prakt. lékaře,praktik,1,praktik,,,francova lhota,75614,francova lhota,75614,542644,
Všeobecný lékař Ostravsko s.r.o.,Samost. ordinace všeob. prakt. lékaře,ambulantní péče,všeobecné praktické lékařství,Fryčovice,73945,,83,Moravskoslezský kraj,49.675559952598,18.227601342419,,,Samost. ordinace všeob. prakt. lékaře,praktik,1,praktik,,,fryčovice,73945,fryčovice,73945,598135,
MDDr. Jan Richter,Samostatná ordinace PL - stomatologa,primární ambulantní péče,zubní lékařství,Fryčovice,73945,,87,Moravskoslezský kraj,49.674645043494,18.22480136481,,,Samostatná ordinace PL - stomatologa,zubař,3,zubař,,,fryčovice,73945,fryčovice,73945,598135,
Praktický lékař Loučovice s.r.o.,Samost. ordinace všeob. prakt. lékaře,ambulantní péče,všeobecné praktické lékařství,Frymburk,38279,,160,Jihočeský kraj,48.662828996463,14.16561362962,,,Samost. ordinace všeob. prakt. lékaře,praktik,1,praktik,,,frymburk,38279,frymburk,38279,545481,
Dentální centrum Frymburk s.r.o.,Samostatná ordinace PL - stomatologa,ambulantní péče,zubní lékařství,Frymburk,38279,,5,Jihočeský kraj,48.661746061366,14.166330007398,,,Samostatná ordinace PL - stomatologa,zubař,3,zubař,,,frymburk,38279,frymburk,38279,545481,
MUDr. Milada Hendrychová - praktický lékař pro děti a dorost,Sam.ord.prakt.lékaře pro děti a dorost,ambulantní péče,praktické lékařství pro děti a dorost,Frymburk,38279,,160,Jihočeský kraj,48.662828996463,14.16561362962,,,Sam.ord.prakt.lékaře pro děti a dorost,pediatr,2,pediatr,,,frymburk,38279,frymburk,38279,545481,
Drsarka s.r.o.,Samost. ordinace všeob. prakt. lékaře,primární ambulantní péče,všeobecné praktické lékařství,Hajnice,54466,,35,Královéhradecký kraj,50.488011138386,15.910762587418,,,Samost. ordinace všeob. prakt. lékaře,praktik,1,praktik,,,hajnice,54466,hajnice,54466,579211,
Dětská ordinace Dvůr Králové s.r.o.,Sam.ord.prakt.lékaře pro děti a dorost,"ambulantní péče, zdrav. péče poskytovaná ve vlastním soc. prostředí pacienta - návštěvní služba","praktické lékařství pro děti a dorost, praktické lékařství pro děti a dorost",Hajnice,54466,,35,Královéhradecký kraj,50.488011138386,15.910762587418,,,Sam.ord.prakt.lékaře pro děti a dorost,pediatr,2,pediatr,,,hajnice,54466,hajnice,54466,579211,
MUDr. Tomáš Vejrych s.r.o.,Samost. ordinace všeob. prakt. lékaře,primární ambulantní péče,všeobecné praktické lékařství,Hajnice,54466,,46,Královéhradecký kraj,50.482186528776,15.90849773241,,,Samost. ordinace všeob. prakt. lékaře,praktik,1,praktik,,,hajnice,54466,hajnice,54466,579211,
Lékařské služby Halenkov s.r.o.,Samost. ordinace všeob. prakt. lékaře,primární ambulantní péče,všeobecné praktické lékařství,Halenkov,75603,,654,Zlínský kraj,49.315914225991,18.145551220785,,,Samost. ordinace všeob. prakt. lékaře,praktik,1,praktik,,,halenkov,75603,halenkov,75603,542679,
MUDr. Jaromír Kovář,Sam.ord.prakt.lékaře pro děti a dorost,primární ambulantní péče,praktické lékařství pro děti a dorost,Halenkov,75603,,655,Zlínský kraj,49.315864503201,18.145206066062,,,Sam.ord.prakt.lékaře pro děti a dorost,pediatr,2,pediatr,,,halenkov,75603,halenkov,75603,542679,
MUDr. Jana Černá,Samostatná ordinace PL - stomatologa,primární ambulantní péče,zubní lékařství,Halenkov,75603,,654,Zlínský kraj,49.315914225991,18.145551220785,,,Samostatná ordinace PL - stomatologa,zubař,3,zubař,,,halenkov,75603,halenkov,75603,542679,
Všepraktik s.r.o.,Samost. ordinace všeob. prakt. lékaře,primární ambulantní péče,všeobecné praktické lékařství,Harrachov,51246,,84,Liberecký kraj,50.782767689285,15.418291224836,,,Samost. ordinace všeob. prakt. lékaře,praktik,1,praktik,,,harrachov,51246,harrachov,51246,577081,
MUDr. Miroslav Michálek,Samostatná ordinace PL - stomatologa,ambulantní péče,zubní lékařství,Harrachov,51246,,252,Liberecký kraj,50.770948760198,15.433670502897,,,Samostatná ordinace PL - stomatologa,zubař,3,zubař,,,harrachov,51246,harrachov,51246,577081,
Zdravotnické služby Šumava s.r.o.,Sam.ord.prakt.lékaře pro děti a dorost,ambulantní péče,praktické lékařství pro děti a dorost,Hartmanice,34201,,23,Plzeňský kraj,49.169516210676,13.455097336818,,,Sam.ord.prakt.lékaře pro děti a dorost,pediatr,2,pediatr,,,hartmanice,34201,hartmanice,34201,556181,
MUDr. Ladislav Jon,Samost. ordinace všeob. prakt. lékaře,ambulantní péče,všeobecné praktické lékařství,Hartmanice,34201,,23,Plzeňský kraj,49.169516210676,13.455097336818,,,Samost. ordinace všeob. prakt. lékaře,praktik,1,praktik,,,hartmanice,34201,hartmanice,34201,556181,
MUDr. Božena Soukupová,Samostatná ordinace PL - stomatologa,ambulantní péče,zubní lékařství,Havraň,43501,,11,Ústecký kraj,50.446939372986,13.598235367194,,,Samostatná ordinace PL - stomatologa,zubař,3,zubař,,,havraň,43501,havraň,43501,567141,
MUDr. Lubomír Fleiberk,Samost. ordinace všeob. prakt. lékaře,ambulantní péče,všeobecné praktické lékařství,Hejnice,46362,,601,Liberecký kraj,50.87994050754,15.182665712884,,,Samost. ordinace všeob. prakt. lékaře,praktik,1,praktik,,,hejnice,46362,hejnice,46362,564044,
MUDr. Pavel Sláma,Samost. ordinace všeob. prakt. lékaře,primární ambulantní péče,všeobecné praktické lékařství,Hejnice,46362,,601,Liberecký kraj,50.87994050754,15.182665712884,,,Samost. ordinace všeob. prakt. lékaře,praktik,1,praktik,,,hejnice,46362,hejnice,46362,564044,
Sofident - Vysočina s.r.o.,Samostatná ordinace PL - stomatologa,ambulantní péče,zubní lékařství,Herálec,58255,,81,Kraj Vysočina,49.530646635715,15.455997451692,,,Samostatná ordinace PL - stomatologa,zubař,3,zubař,,,herálec,58255,herálec,58255,568678,
"HM praktik, s.r.o.",Samost. ordinace všeob. prakt. lékaře,"primární ambulantní péče, zdrav. péče poskytovaná ve vlastním soc. prostředí pacienta - návštěvní služba","všeobecné praktické lékařství, všeobecné praktické lékařství",Herálec,59201,,81,Kraj Vysočina,49.688858537577,15.991186455428,,,Samost. ordinace všeob. prakt. lékaře,praktik,1,praktik,,,herálec,59201,herálec,59201,595594,
MUDr. Lucie Stehlíková s.r.o.,Samost. ordinace všeob. prakt. lékaře,"ambulantní péče, zdrav. péče poskytovaná ve vlastním soc. prostředí pacienta - návštěvní služba","všeobecné praktické lékařství, všeobecné praktické lékařství",Herálec,58255,,257,Kraj Vysočina,49.531747232655,15.456055777545,,,Samost. ordinace všeob. prakt. lékaře,praktik,1,praktik,,,herálec,58255,herálec,58255,568678,
MUDr. PŘINOSIL-PRAKTIK s.r.o.,Samost. ordinace všeob. prakt. lékaře,"primární ambulantní péče, specializovaná ambulantní péče","všeobecné praktické lékařství, všeobecné praktické lékařství",Hevlín,67169,,224,Jihomoravský kraj,48.752088483785,16.379715168674,,,Samost. ordinace všeob. prakt. lékaře,praktik,1,praktik,,,hevlín,67169,hevlín,67169,594032,
"AK DENT, s.r.o.",Samostatná ordinace PL - stomatologa,primární ambulantní péče,zubní lékařství,Hevlín,67169,,460,Jihomoravský kraj,48.73069887533,16.382463576507,,,Samostatná ordinace PL - stomatologa,zubař,3,zubař,,,hevlín,67169,hevlín,67169,594032,
MUCHA MEDIPRAKT s.r.o.,Samost. ordinace všeob. prakt. lékaře,primární ambulantní péče,všeobecné praktické lékařství,Hlubočec,74769,,95,Moravskoslezský kraj,49.841101780555,17.969586210256,,,Samost. ordinace všeob. prakt. lékaře,praktik,1,praktik,,,hlubočec,74769,hlubočec,74769,568368,
MUDr. Jiří Novák - praktické lékařství s.r.o.,Samost. ordinace všeob. prakt. lékaře,ambulantní péče,všeobecné praktické lékařství,Hněvotín,78347,,47,Olomoucký kraj,49.571741278793,17.180324700906,,,Samost. ordinace všeob. prakt. lékaře,praktik,1,praktik,,,hněvotín,78347,hněvotín,78347,502235,
Dětská ambulance MUDr. Vydra s.r.o.,Sam.ord.prakt.lékaře pro děti a dorost,ambulantní péče,"praktické lékařství pro děti a dorost, dětské lékařství",Hněvotín,78347,,47,Olomoucký kraj,49.571741278793,17.180324700906,,,Sam.ord.prakt.lékaře pro děti a dorost,pediatr,2,pediatr,,,hněvotín,78347,hněvotín,78347,502235,
MUDr. KARIN NIKLOVÁ,Samost. ordinace všeob. prakt. lékaře,ambulantní péče,všeobecné praktické lékařství,Hnojice,78501,,160,Olomoucký kraj,49.716942568254,17.223715596912,,,Samost. ordinace všeob. prakt. lékaře,praktik,1,praktik,,,hnojice,78501,hnojice,78501,502405,
PediAHealth s.r.o.,Sam.ord.prakt.lékaře pro děti a dorost,primární ambulantní péče,praktické lékařství pro děti a dorost,Hnojník,73953,,109,Moravskoslezský kraj,49.680512486556,18.539639973688,,,Sam.ord.prakt.lékaře pro děti a dorost,pediatr,2,pediatr,,,hnojník,73953,hnojník,73953,598160,
MUDr. Lenka Bilková,Samost. ordinace všeob. prakt. lékaře,primární ambulantní péče,všeobecné praktické lékařství,Hnojník,73953,,127,Moravskoslezský kraj,49.680753020449,18.541294687946,,,Samost. ordinace všeob. prakt. lékaře,praktik,1,praktik,,,hnojník,73953,hnojník,73953,598160,
"MUDr. Radek Ševela, s.r.o.",Samost. ordinace všeob. prakt. lékaře,"primární ambulantní péče, specializovaná ambulantní péče","všeobecné praktické lékařství, chirurgie",Hodslavice,74271,,161,Moravskoslezský kraj,49.537664906425,18.023819379049,,,Samost. ordinace všeob. prakt. lékaře,praktik,1,praktik,,,hodslavice,74271,hodslavice,74271,599409,
MUDr. Olga Váhalová,Sam.ord.prakt.lékaře pro děti a dorost,primární ambulantní péče,praktické lékařství pro děti a dorost,Hodslavice,74271,,161,Moravskoslezský kraj,49.537664906425,18.023819379049,,,Sam.ord.prakt.lékaře pro děti a dorost,pediatr,2,pediatr,,,hodslavice,74271,hodslavice,74271,599409,
Dětská ambulance E + T s.r.o.,Sam.ord.prakt.lékaře pro děti a dorost,ambulantní péče,praktické lékařství pro děti a dorost,Holasovice,74774,,130,Moravskoslezský kraj,50.000893925497,17.804847906101,,,Sam.ord.prakt.lékaře pro děti a dorost,pediatr,2,pediatr,,,holasovice,74774,holasovice,74774,507113,
Pediatrie Vydrová s.r.o.,Sam.ord.prakt.lékaře pro děti a dorost,ambulantní péče,praktické lékařství pro děti a dorost,Holoubkov,33801,,7,Plzeňský kraj,49.774913431296,13.692348421715,,,Sam.ord.prakt.lékaře pro děti a dorost,pediatr,2,pediatr,,,holoubkov,33801,holoubkov,33801,559814,
MDDr. Katarína Čechurová,Samostatná ordinace PL - stomatologa,ambulantní péče,zubní lékařství,Holoubkov,33801,,7,Plzeňský kraj,49.774913431296,13.692348421715,,,Samostatná ordinace PL - stomatologa,zubař,3,zubař,,,holoubkov,33801,holoubkov,33801,559814,
"PRAKTICKÝ LÉKAŘ - HOLOUBKOV, s.r.o.",Samost. ordinace všeob. prakt. lékaře,ambulantní péče,všeobecné praktické lékařství,Holoubkov,33801,,7,Plzeňský kraj,49.774913431296,13.692348421715,,,Samost. ordinace všeob. prakt. lékaře,praktik,1,praktik,,,holoubkov,33801,holoubkov,33801,559814,
Sana-Flora s.r.o.,Samost. ordinace všeob. prakt. lékaře,primární ambulantní péče,všeobecné praktické lékařství,Holubice,68351,,61,Jihomoravský kraj,49.178614520695,16.814564511054,,,Samost. ordinace všeob. prakt. lékaře,praktik,1,praktik,,,holubice,68351,holubice,68351,550825,
MUDr. Dagmar Šilerová,Sam.ord.prakt.lékaře pro děti a dorost,primární ambulantní péče,praktické lékařství pro děti a dorost,Holubice,68351,,61,Jihomoravský kraj,49.178614520695,16.814564511054,,,Sam.ord.prakt.lékaře pro děti a dorost,pediatr,2,pediatr,,,holubice,68351,holubice,68351,550825,
"MUDr. Dagmar Rumanová, praktický lékař pro dospělé",Samost. ordinace všeob. prakt. lékaře,primární ambulantní péče,všeobecné praktické lékařství,Honezovice,33301,,84,Plzeňský kraj,49.638510819198,13.059813803953,,,Samost. ordinace všeob. prakt. lékaře,praktik,1,praktik,,,honezovice,33301,honezovice,33301,540668,
MUDr. Marie Hornigová,Samost. ordinace všeob. prakt. lékaře,ambulantní péče,všeobecné praktické lékařství,Horka u Staré Paky,51234,,24,Liberecký kraj,50.527507213133,15.575563411179,,,Samost. ordinace všeob. prakt. lékaře,praktik,1,praktik,,,horka u staré paky,51234,horka u staré paky,51234,574201,
MUDr. Marie Mühlová,Samostatná ordinace PL - stomatologa,primární ambulantní péče,zubní lékařství,Horka u Staré Paky,51234,,24,Liberecký kraj,50.527507213133,15.575563411179,,,Samostatná ordinace PL - stomatologa,zubař,3,zubař,,,horka u staré paky,51234,horka u staré paky,51234,574201,
MDDr. Pavla Kramolišová - zubní ordinace s.r.o.,Samostatná ordinace PL - stomatologa,primární ambulantní péče,zubní lékařství,Horní Bečva,75657,,655,Zlínský kraj,49.432468381883,18.288327490585,,,Samostatná ordinace PL - stomatologa,zubař,3,zubař,,,horní bečva,75657,horní bečva,75657,542687,
Mediclinic a.s.,Samost. ordinace všeob. prakt. lékaře,primární ambulantní péče,všeobecné praktické lékařství,Horní Bečva,75657,,655,Zlínský kraj,49.432468381883,18.288327490585,,,Samost. ordinace všeob. prakt. lékaře,praktik,1,praktik,,,horní bečva,75657,horní bečva,75657,542687,
MUDr. Zdislava Dospělová,Sam.ord.prakt.lékaře pro děti a dorost,primární ambulantní péče,praktické lékařství pro děti a dorost,Horní Bečva,75657,,655,Zlínský kraj,49.432468381883,18.288327490585,,,Sam.ord.prakt.lékaře pro děti a dorost,pediatr,2,pediatr,,,horní bečva,75657,horní bečva,75657,542687,
"MUDr. Josef Koutník, s.r.o.",Samost. ordinace všeob. prakt. lékaře,primární ambulantní péče,všeobecné praktické lékařství,Horní Bludovice,73937,,90,Moravskoslezský kraj,49.74635777967,18.411306531772,,,Samost. ordinace všeob. prakt. lékaře,praktik,1,praktik,,,horní bludovice,73937,horní bludovice,73937,598178,
"MUDr. Josef Koutník, s.r.o.",Samost. ordinace všeob. prakt. lékaře,primární ambulantní péče,všeobecné praktické lékařství,Horní Bludovice,73937,,434,Moravskoslezský kraj,49.750313339371,18.437862952693,,,Samost. ordinace všeob. prakt. lékaře,praktik,1,praktik,,,horní bludovice,73937,horní bludovice,73937,598178,
MUDr. Dagmar Voznicová,Samostatná ordinace PL - stomatologa,primární ambulantní péče,zubní lékařství,Horní Bludovice,73937,,524,Moravskoslezský kraj,49.757669527614,18.448585398735,,,Samostatná ordinace PL - stomatologa,zubař,3,zubař,,,horní bludovice,73937,horní bludovice,73937,598178,
VERAMED s.r.o.,Samost. ordinace všeob. prakt. lékaře,primární ambulantní péče,všeobecné praktické lékařství,Horní Bojanovice,69301,,96,Jihomoravský kraj,48.947149719988,16.799012079383,,,Samost. ordinace všeob. prakt. lékaře,praktik,1,praktik,,,horní bojanovice,69301,horní bojanovice,69301,584461,
MUDr. Věra Hochlová,Samost. ordinace všeob. prakt. lékaře,primární ambulantní péče,všeobecné praktické lékařství,Horní Bojanovice,69301,,81,Jihomoravský kraj,48.951607674533,16.799256731985,,,Samost. ordinace všeob. prakt. lékaře,praktik,1,praktik,,,horní bojanovice,69301,horní bojanovice,69301,584461,
Ordinace Branná s.r.o.,Samost. ordinace všeob. prakt. lékaře,primární ambulantní péče,všeobecné praktické lékařství,Horní Branná,51236,,3,Liberecký kraj,50.609885691533,15.567442482398,,,Samost. ordinace všeob. prakt. lékaře,praktik,1,praktik,,,horní branná,51236,horní branná,51236,577120,
MUDr. Jiřina Machová,Samostatná ordinace PL - stomatologa,primární ambulantní péče,zubní lékařství,Horní Branná,51401,,3,Liberecký kraj,50.626541789527,15.555148938718,,,Samostatná ordinace PL - stomatologa,zubař,3,zubař,,,horní branná,51401,horní branná,51401,577120,
MUDr. Zdeňka Novotná,"Sam.ord.prakt.lékaře pro děti a dorost, Samost. ordinace všeob. prakt. lékaře",primární ambulantní péče,"všeobecné praktické lékařství, praktické lékařství pro děti a dorost",Horní Čermná,56156,,1,Pardubický kraj,49.970612610509,16.607665778131,,,"Sam.ord.prakt.lékaře pro děti a dorost, Samost. ordinace všeob. prakt. lékaře",pediatr,2,pediatr,,,horní čermná,56156,horní čermná,56156,580279,
"MUDr. Jitka Filipová, FI-DENT",Samostatná ordinace PL - stomatologa,primární ambulantní péče,zubní lékařství,Horní Čermná,56156,,1,Pardubický kraj,49.970612610509,16.607665778131,,,Samostatná ordinace PL - stomatologa,zubař,3,zubař,,,horní čermná,56156,horní čermná,56156,580279,
MUDr. Petra Labovská s.r.o.,Samost. ordinace všeob. prakt. lékaře,"primární ambulantní péče, specializovaná ambulantní péče","všeobecné praktické lékařství, všeobecné praktické lékařství",Horní Dunajovice,67134,,140,Jihomoravský kraj,48.949444251186,16.161298824431,,,Samost. ordinace všeob. prakt. lékaře,praktik,1,praktik,,,horní dunajovice,67134,horní dunajovice,67134,594091,
MUDr. Dagmar Hegerová,Sam.ord.prakt.lékaře pro děti a dorost,primární ambulantní péče,praktické lékařství pro děti a dorost,Horní Dunajovice,67134,,211,Jihomoravský kraj,48.947827146351,16.166119262697,,,Sam.ord.prakt.lékaře pro děti a dorost,pediatr,2,pediatr,,,horní dunajovice,67134,horní dunajovice,67134,594091,
MUDr. Josef Dvořák - praktický lékař,Samost. ordinace všeob. prakt. lékaře,ambulantní péče,všeobecné praktické lékařství,Horní Dvořiště,38293,,32,Jihočeský kraj,48.604166223503,14.406053922447,,,Samost. ordinace všeob. prakt. lékaře,praktik,1,praktik,,,horní dvořiště,38293,horní dvořiště,38293,545503,
